grdc_no,wmo_reg,sub_reg,river,station,country,lat,lon,area,altitude,d_start,d_end,d_yrs,d_miss,m_start,m_end,m_yrs,m_miss,t_start,t_end,t_yrs,lta_discharge,r_volume_yr,r_height_yr
1616700,1,1160,KONKOURE,PONT DE TELIMELE,GN,10.5,-12.9,10250,154,1954,2020,67,49.40429567,1976,1979,4,4.166666667,1954,2020,67,399.775,12.6073044,1229.980917
3652068,3,3527,"JACUIPE, RIO",PONTE RIO BRANCO,BR,-12.23306,-39.04611,10560,119,1929,2010,82,2.826203567,1929,1979,51,6.688963211,1929,2010,82,8.725,0.2751516,26.05602273
2854700,2,2541,CAUVERY RIVER,KRISHNARAJASAGAR,IN,12.42,76.58,10600,715,,,,,1934,1979,46,32.60869565,1934,1979,46,170.034,5.362192224,505.8671909
6502100,6,6021,"SHANNON, RIVER",KILLALOE,IE,52.821968,-8.439731,10631.1,32,,,,,1973,1979,7,14.28571429,1973,1979,7,171.874,5.420218464,509.8454971
2851500,2,2511,BHARELI RIVER,N.T. ROAD CROSSING,IN,26.83,92.92,10820,74,,,,,1958,1979,22,36.74242424,1958,1979,22,888.792,28.02894451,2590.475463
2605450,2,2051,NAKDONGGANG,WAEGWAN,KR,36.000278,128.394444,11074.4,18.97,1995,2009,15,0,1976,1979,4,0,1976,2009,34,177.296,5.591206656,504.8767117
2677300,2,2771,HAN-GANG,YEOJU,KR,37.296111,127.6475,11104.4,32.53,1995,2009,15,1.149844862,1976,1979,4,0,1976,2009,34,291.808,9.202457088,828.7216858
4355400,4,4550,"HUMAYA, RIO",PALOS BLANCOS,MX,24.925,-107.3819,11409,88,1938,1988,51,0,1976,1979,4,0,1938,1988,51,41.903,1.321453008,115.8254894
6349500,6,6490,"ADIGE, FIUME",BOARA PISANI,IT,45.1,11.82,11954,9,1980,1984,5,0,1922,1979,58,1.724137931,1922,1984,63,193.735,6.10962696,511.0947766
3411300,3,3111,COPPENAME RIVIER,MAKSITA,SR,4.9,-56.12,12300,13,,,,,1973,1979,7,0,1973,1979,7,327.828,10.33838381,840.5190088
2836100,2,2361,JHELUM RIVER,BARAMULA BR.,IN,34.22,74.33,12494,-999,,,,,1968,1979,12,8.333333333,1968,1979,12,221.865,6.99673464,560.0075748
1634420,1,1341,NIANDAN,BARO,GN,10.6,-9.73,12770,416,1947,1979,33,16.90554019,1947,1979,33,17.09183673,1947,1979,33,267.298,8.429509728,660.1025629
2854750,2,2540,PONNAIYAR RIVER,TIRUKOILUR ANICUT,IN,11.98,79.27,12888,83,,,,,1976,1979,4,0,1976,1979,4,20.4,0.6433344,49.91731844
2853050,2,2530,SABARMATI RIVER,AHMEDABAD,IN,23.08,72.63,12950,50,,,,,1968,1979,12,8.333333333,1968,1979,12,32.687,1.030817232,79.59978625
3179250,3,3794,"RAPEL, RIO",CORNECHE,CL,-33.98,-71.68,13186,17,,,,,1966,1979,14,0,1966,1979,14,167.508,5.282532288,400.6167365
1269600,1,1691,GURUMETI,MUSOMA ROAD (55116003),TZ,-2.061111,33.944444,13233,-999,,,,,1970,1979,10,7.5,1970,1979,10,11.377,0.358785072,27.11290501
1339500,1,1391,NYONG,MBALMAYO,CM,3.52,11.5,13555,634,,,,,1951,1979,29,0,1951,1979,29,149.754,4.722642144,348.4059125
2997253,2,2974,TAZ,RATTA,RU,63.58,83.85,13600,-999,,,,,1973,1979,7,8.333333333,1973,1979,7,162.121,5.112647856,375.9299894
1271500,1,1711,MARA,MARA MINES,TZ,-1.65,34.56,15000,-999,,,,,1970,1979,10,12.5,1970,1979,10,26.657,0.840655152,56.0436768
1894400,1,1941,PUNGWE,BUE-MARIA (58414066),MZ,-19.025278,34.18,15300,60,1953,1981,29,6.502395619,1976,1979,4,6.25,1953,1981,29,98.445,3.10456152,202.9125176
1582700,1,1821,GIBE WENZ,NEAR ABELTI,ET,8.23,37.58,15746,-999,,,,,1976,1979,4,0,1976,1979,4,195.207,6.156047952,390.9594787
1472100,1,1721,KAFU,KAMPALA-GULU ROAD,UG,1.55,32.05,16150,-999,,,,,1976,1979,4,0,1976,1979,4,15.403,0.485749008,30.07733796
6351500,6,6510,TIBER RIVER,ROMA,IT,41.9,12.483334,16545,1,,,,,1921,1979,59,0,1921,1979,59,230.423,7.266619728,439.2033683
2178400,2,2781,DALINGHE KOU,DALINGHE,CN,41.18,121.37,17687,-999,2004,2004,1,61.79775281,1960,1979,20,0,1960,2004,45,47.956,1.512340416,85.5057622
1340500,1,1401,NTEM,NGOAZIK,CM,2.3,11.3,18100,500,,,,,1953,1979,27,0,1953,1979,27,278.261,8.775238896,484.8198285
2839100,2,2391,BEAS RIVER,MANDI PLAIN,IN,31.17,75.13,18274,207,,,,,1968,1979,12,8.333333333,1968,1979,12,499.173,15.74191973,861.4380939
1577600,1,1771,AWASH WENZ,AWASH,ET,9.2,40.2,18710,-999,,,,,1976,1979,4,0,1976,1979,4,46.057,1.452453552,77.62979968
4244600,4,4440,"OUTARDES, RIVIERE AUX",CENTRALE DE CHUTE-AUX-OUTARDES,CA,49.155,-68.4044,18900,58,1922,1978,57,2.17242726,1922,1979,58,0.872093023,1922,1979,58,387.113,12.20799557,645.9256914
2854050,2,2545,DAMODAR RIVER,RHONDIA,IN,23.43,87.37,19220,-999,,,,,1934,1979,46,11.5942029,1934,1979,46,298.43,9.41128848,489.6612112
6865500,6,6651,MARITSA RIVER,KHARMANLI,BG,41.933334,25.9,19693,66,,,,,1965,1979,15,0,1965,1979,15,113.066,3.565649376,181.0617669
2605500,2,2051,NAKDONGGANG,JIN DONG,KR,35.38,128.48,20403,2,,,,,1976,1979,4,0,1976,1979,4,189.227,5.967462672,292.4796683
1201500,1,1011,"MAJARDAH, WADI",SLOUGHIA,TN,36.58,9.52,20895,67,,,,,1976,1979,4,0,1976,1979,4,18.179,0.573292944,27.43684824
4358220,4,4582,PAPALOAPAN,PAPALOAPAN,MX,18.17,-96.08,21419,22,1947,2002,56,5.382046749,1948,1979,32,0,1947,2002,56,638.519,20.13633518,940.1155602
2837100,2,2371,CHENAB RIVER,AKHNOOR,IN,32.9,74.75,22681,305,,,,,1968,1979,12,8.333333333,1968,1979,12,800.543,25.24592405,1113.086903
1134020,1,1341,SANKARANI,GUELELINKORO,ML,11.15,-8.55,23300,-999,1971,1979,9,2.295918367,1971,1979,9,1.941747573,1971,1979,9,256.975,8.1039636,347.8095966
1566100,1,1661,BARO,GAMBELLA,ET,8.25,34.58,23461,-999,,,,,1928,1979,52,55.76923077,1928,1979,52,36.625,1.155006,49.23089382
2854450,2,2542,HAGARI RIVER,RAMAPURAM,IN,15.63,76.97,23500,349,,,,,1971,1979,9,11.11111111,1971,1979,9,28.269,0.891491184,37.93579506
1335181,1,1351,"KEBI, MAYO",COSSI,CM,9.62,13.87,25000,195,,,,,1955,1979,25,0,1955,1979,25,97.105,3.06230328,122.4921312
2677100,2,2771,HAN-GANG,INDOGYO,KR,37.52,126.97,25046,2,,,,,1947,1979,33,24.61538462,1947,1979,33,505.981,15.95661682,637.0924226
4213290,4,4132,BATTLE RIVER,NEAR UNWIN,CA,52.94,-109.87,25900,-999,1944,1979,36,4.591641837,1944,1979,36,4.651162791,1944,1979,36,9.072,0.286094592,11.04612324
1899100,1,1991,MAPUTO,MADUBULA (58631006),MZ,-26.79,32.44,29476,11,1953,1983,31,0.67294751,1976,1979,4,2.083333333,1953,1983,31,91.63,2.88964368,98.03377935
3652320,3,3528,"PARDO, RIO",MASCOTE,BR,-15.55889,-39.30806,30360,4,1936,2010,75,4.703325844,1936,1979,44,5.34351145,1936,2010,75,74.531,2.350409616,77.41797154
2856200,2,2561,GODAVARI RIVER,DHALEGAON,IN,19.2,76.37,30840,387,,,,,1968,1979,12,8.333333333,1968,1979,12,127.014,4.005513504,129.8804638
3652130,3,3527,"PARAGUACU, RIO",FAZENDA SANTA FE,BR,-12.51556,-39.84806,31488,173,1966,2010,45,0.171631727,1966,1979,14,0,1966,2010,45,70.57,2.22549552,70.67757622
4203150,4,4031,STEWART RIVER,MAYO,CA,63.59,-135.89,31598,-999,1949,1979,31,3.894149925,1949,1979,31,4.312668464,1949,1979,31,377.118,11.89279325,376.3780381
2853150,2,2531,MAHI RIVER,SEVALIA,IN,22.3,73.03,33670,-999,,,,,1968,1979,12,8.333333333,1968,1979,12,384.057,12.11162155,359.7155198
2854100,2,2542,BHIMA RIVER,TAKALI,IN,17.4,75.85,33916,411,,,,,1968,1979,12,8.333333333,1968,1979,12,238.006,7.505757216,221.304317
1547400,1,1471,CHAMBESHI,OLD PONTOON,ZM,-10.95,31.07,34745,1200,1972,2004,33,16.94605809,1976,1979,4,2.083333333,1972,2004,33,176.72,5.57304192,160.398386
1427450,1,1271,SASSANDRA,GUESSABO,CI,6.74,-7,35000,-999,1979,1979,1,0,1979,1979,1,0,1979,1979,1,297.436,9.379941696,267.9983342
3652039,3,3526,"ITAPICURU, RIO",USINA ALTAMIRA,BR,-11.73472,-37.80333,35150,17,1964,2019,56,17.89648925,1964,1979,16,11.53846154,1964,2019,56,25.629,0.808236144,22.9939159
4214950,4,4143,"GEORGE, RIVIERE",AUX CHUTES HELEN,CA,58.1547,-65.8436,35200,104,1957,1979,23,28.14787701,1962,1979,18,7.317073171,1957,1979,23,738.534,23.29040822,661.6593245
2854150,2,2542,KRISHNA,ALAMATI,IN,16.33,75.55,36286,489,,,,,1971,1979,9,12.96296296,1971,1979,9,569.175,17.9495028,494.667442
1897500,1,1971,"INCOMATI, RIO",CHOBELA,MZ,-25.02,32.73,37600,14,,,,,1976,1979,4,2.083333333,1976,1979,4,104.017,3.280280112,87.24149234
6123300,6,6231,LOIRE,BLOIS,FR,47.58,1.33,38240,66,,,,,1863,1979,117,0.854700855,1863,1979,117,362.714,11.4385487,299.1252276
2856600,2,2561,INDRAVATI RIVER,PARTHGUDEM,IN,18.82,80.35,40000,86,,,,,1971,1979,9,11.11111111,1971,1979,9,398.763,12.57538997,314.3847492
6212400,6,6121,"DOURO, RIO",VILLACHICA O SAN ANDRES,ES,41.5,-5.48,41856,641,1930,1968,39,39.39094185,1921,1979,59,0,1921,1979,59,145.75,4.596372,109.8139335
6348400,6,6481,"PO, FIUME",PIACENZA,IT,45.016666,9.666667,42030,42,1980,1985,6,0,1924,1979,56,0,1924,1985,62,928.539,29.2824059,696.7024959
6122300,6,6221,SEINE,PARIS,FR,48.83,2.27,44320,26,,,,,1928,1979,52,2.403846154,1928,1979,52,269.109,8.486621424,191.4851404
2856530,2,2561,WARDHA RIVER,BAMNI BR.,IN,19.8,79.37,46020,157,,,,,1971,1979,9,12.03703704,1971,1979,9,359.465,11.33608824,246.329601
2495450,2,2952,"KARKHEH, RUDKHANEH-YE",HAMIDIYEH,IR,31.5,48.433333,46121,20,1950,2016,67,2.928731436,1976,1979,4,0,1950,2016,67,133.667,4.215322512,91.39703198
2421450,2,2211,RUDKHANEH-YE QEZEL OWZAN,GILVAN,IR,36.778333,49.132778,49300,311,,,,,1976,1979,4,0,1976,1979,4,96.746,3.050981856,61.8860417
2856550,2,2561,WAINGANGA RIVER,ASHTI,IN,19.68,79.78,50990,137,,,,,1968,1979,12,8.333333333,1968,1979,12,695.653,21.93811301,430.24344
6139400,6,6391,RHONE,GIVORS,FR,45.58,4.8,51080,148,,,,,1973,1979,7,14.28571429,1973,1979,7,1019.817,32.16094891,629.6192034
3410500,3,3101,COURANTYNE RIVER,MATAWAY,SR,5.8,-57.12,51600,9,,,,,1973,1979,7,0,1973,1979,7,1090.06,34.37613216,666.2041116
6125100,6,6251,GARONNE,MAS-D'AGENAIS,FR,44.42,0.23,52000,17,1961,1979,19,10.56348177,1920,1979,60,0,1920,1979,60,671.096,21.16368346,406.9939126
2854500,2,2543,PENNER RIVER,NELLORE,IN,14.45,79.98,53290,-999,,,,,1965,1979,15,6.666666667,1965,1979,15,74.483,2.348895888,44.07761096
6348500,6,6481,"PO, FIUME",BORETTO,IT,44.900002,10.55,55183,20,1980,1985,6,0,1965,1979,15,0,1965,1985,21,1233.863,38.91110357,705.1284556
2856300,2,2561,GODAVARI RIVER,BABLI,IN,18.87,77.82,55510,304,,,,,1971,1979,9,11.11111111,1971,1979,9,165.379,5.215392144,93.95410095
4353300,4,4532,YAQUI,EL NOVILLO I,MX,28.93,-109.63,57908,480,1958,1979,22,55.84218513,1976,1979,4,0,1958,1979,22,78.662,2.480684832,42.83837867
3717600,3,3171,"GRANDE, RIO",ABAPO,BO,-18.85,-63.47,59000,500,,,,,1976,1979,4,0,1976,1979,4,232.814,7.342022304,124.441056
4358300,4,4581,"PANUCO, RIO",LAS ADJUNTAS,MX,21.9833,-98.566667,61063,80,1956,2002,47,0.834165541,1965,1979,15,0,1956,2002,47,391.373,12.34233893,202.1246733
2853300,2,2533,TAPI,KATHORE,IN,21.28,72.95,61575,-999,,,,,1940,1979,40,31.15789474,1940,1979,40,408.222,12.87368899,209.0733088
6444300,6,6441,TISA,POLGAR,HU,47.866665,21.083334,62723,88,,,,,1921,1979,59,5.790960452,1921,1979,59,520.546,16.41593866,261.7211973
3469100,3,3691,"NEGRO, RIO",PALMAR,UY,-33.12,-57.18,63000,13,,,,,1910,1979,70,13.0952381,1910,1979,70,693.872,21.88194739,347.3324983
3412800,3,3121,MARONI RIVER,LANGA TABBETJE,SR,5,-54.4,63700,10,,,,,1976,1979,4,0,1976,1979,4,1895.34,59.77144224,938.3271937
1563800,1,1631,BLUE NILE,KESSIE,ET,11.07,38.18,65784,-999,,,,,1976,1979,4,0,1976,1979,4,464.519,14.64907118,222.6844093
1591200,1,1911,KABOMPO,WATOPA PONTOON (60380050),ZM,-14.016667,23.6,66667,1075,,,,,1976,1979,4,0,1976,1979,4,339.69,10.71246384,160.6861542
2854400,2,2542,TUNGABHADRA RIVER,BAWAPURAM,IN,15.55,77.95,67180,272,,,,,1968,1979,12,8.333333333,1968,1979,12,179.872,5.672443392,84.43648991
1286660,1,1861,GREAT RUAHA RIVER,MTERA,TZ,-7.92,36.98,67950,680,1954,1979,26,4.247440645,1955,1979,25,3,1954,1979,26,123.665,3.89989944,57.39366358
3716400,3,3161,"BENI, RIO",ANGOSTO DEL BALA,BO,-14.55,-67.55,69000,284,,,,,1976,1979,4,0,1976,1979,4,2293.668,72.33311405,1048.306001
2854180,2,2542,BHIMA RIVER,YADGIRI,IN,16.68,77.13,69863,350,,,,,1971,1979,9,11.11111111,1971,1979,9,346.114,10.9150511,156.2350758
1634650,1,1341,"NIGER, RIVER",TIGUIBERY,GN,11.25,-9.17,70000,-999,1952,1979,28,10.57530449,1952,1979,28,10.54216867,1952,1979,28,1104.624,34.83542246,497.6488923
4351200,4,4511,RIO GRANDE,AGAUAS ABAJO DEL CONCHOS EN OJINAGA,MX,29.57,-104.45,71964,850,1946,1996,51,39.22052824,1976,1979,4,0,1946,1996,51,36.238,1.142801568,15.88018409
2854800,2,2540,CAUVERY RIVER,GRAND ANICUT,IN,10.83,78.83,74004,58,,,,,1971,1979,9,33.33333333,1971,1979,9,208.418,6.572670048,88.8150647
4103700,4,4031,PORCUPINE RIVER,"NEAR FORT YUKON, ALAS.",US,66.9903,-143.1404,76405,158.496,1964,1979,16,0,1964,1979,16,1.098901099,1964,1979,16,414.723,13.07870453,171.1760294
3768500,3,3681,"PILCOMAYO, RIO",VILLA MONTES,BO,-21.25,-63.47,81506,340,,,,,1976,1979,4,0,1976,1979,4,221.906,6.998027616,85.85904861
2856320,2,2561,GODAVARI RIVER,BASAR,IN,18.87,77.98,86660,299,,,,,1971,1979,9,11.11111111,1971,1979,9,244.285,7.70377176,88.89651235
2853200,2,2532,NARMADA,GARUDESHWAR,IN,21.92,73.65,89345,-999,,,,,1949,1979,31,16.12903226,1949,1979,31,1222.864,38.5642391,431.6328737
1895500,1,1951,"SAVE, RIO",VILLAFRANCA DO SAVE,MZ,-21.1,34.68,100885,20,,,,,1976,1979,4,2.127659574,1976,1979,4,424.192,13.37731891,132.5996819
2856500,2,2561,GODAVARI RIVER,MANCHERIAL,IN,18.83,79.45,102900,124,,,,,1968,1979,12,8.333333333,1968,1979,12,433.431,13.66868002,132.8345969
6123100,6,6231,LOIRE,MONTJEAN,FR,47.38,-0.83,110000,9,1963,1979,17,5.894669029,1863,1979,117,0,1863,1979,117,911.927,28.75852987,261.4411807
6395100,6,6951,EUPHRATES RIVER,KADAHEYEH,SY,36.53,38.25,114000,307,,,,,1976,1979,4,0,1976,1979,4,971.846,30.64813546,268.8432935
2903055,2,2031,VITIM,MNOGOOB. KOSA,RU,56.08,115.77,147000,-999,,,,,1962,1979,18,64.4549763,1962,1979,18,641.467,20.22930331,137.6143082
2311105,2,2111,IRTYSH,SHULBA,KZ,50.38,81.13,179000,-999,,,,,1937,1979,43,8.333333333,1937,1979,43,921.711,29.0670781,162.3859112
1880100,1,1801,"JUBBA, WEBI",LUGH GANANA,SO,3.56,42.32,179520,-999,,,,,1951,1979,29,8.308605341,1951,1979,29,190.801,6.017100336,33.51771578
1878500,1,1781,"SHEBELE, WABI",BELET UEN,SO,4.78,45.2,211800,-999,,,,,1951,1979,29,9.226190476,1951,1979,29,66.028,2.082259008,9.831251218
3269500,3,3691,URUGUAY RIVER,CONCORDIA,AR,-31.4,-58.02,249312,2,,,,,1968,1979,12,0,1968,1979,12,5220.471,164.6327735,660.3483725
2854300,2,2542,KRISHNA,VIJAYAWADA,IN,16.52,80.62,251355,-999,,,,,1901,1979,79,6.329113924,1901,1979,79,1656.43,52.23717648,207.822309
1878300,1,1781,"SHEBELE, WABI",MAHADDEI UEN,SO,3,45.53,255300,-999,,,,,1951,1979,29,25.51928783,1951,1979,29,58.249,1.836940464,7.195223126
2335200,2,2351,INDUS RIVER,ATTOCK,PK,33.9,72.25,265122,258,,,,,1973,1979,7,0,1973,1979,7,2543.947,80.22591259,302.5999826
1878100,1,1781,"SHEBELE, WABI",AFGOI,SO,2.17,45.09,278000,-999,,,,,1951,1979,29,9.552238806,1951,1979,29,45.432,1.432743552,5.153753784
2337100,2,2371,CHENAB RIVER,PANJNAD,PK,29.35,71.03,280238,99,,,,,1973,1979,7,0,1973,1979,7,2016.502,63.59240707,226.9228551
2856900,2,2561,GODAVARI RIVER,POLAVARAM,IN,16.92,81.78,299320,-999,,,,,1901,1979,79,6.468716861,1901,1979,79,3073.755,96.93393768,323.8471792
1896500,1,1961,LIMPOPO RIVER,CHOKWE,MZ,-24.5,33,342000,23,,,,,1976,1979,4,15.55555556,1976,1979,4,439.791,13.86924898,40.55335958
2851300,2,2511,BRAHMAPUTRA RIVER,PANDU,IN,26.13,91.7,405000,49,,,,,1956,1979,24,38.67595819,1956,1979,24,18422.635,580.9762174,1434.509179
4352100,4,4521,"COLORADO, RIO",LINDERO INTERNACIONAL NORTE,MX,32.72,-114.72,631960,30,1961,1995,35,8.667761871,1976,1979,4,0,1961,1995,35,131.495,4.14682632,6.561849358
3662200,3,3621,"PARANA, RIO",SALTO DEL GUAIRA,BR,-24.0667,-54.25,802200,218,,,,,1920,1979,60,0,1920,1979,60,8570.16,270.2685658,336.9092069
2335950,2,2351,INDUS RIVER,KOTRI,PK,25.37,68.37,832418,13,,,,,1936,1979,44,29.47976879,1936,1979,44,2887.631,91.06433122,109.3973595
1891500,1,1911,ZAMBEZI RIVER,MATUNDO-CAIS (58316087),MZ,-16.15,33.591667,940000,117,1960,1990,31,0.425768234,1976,1979,4,0,1960,1990,31,2486.752,78.42221107,83.42788412
3635050,3,3351,"MADEIRA, RIO",PORTO VELHO-MONTANTE,BR,-8.77,-63.92,950582,-999,,,,,1967,1979,13,2.631578947,1967,1979,13,17140.696,540.5489891,568.6505626
2910330,2,2101,YAYA,USMANKA,RU,56.65,86.17,10200,-999,,,,,1968,1980,13,17.68707483,1968,1980,13,66.311,2.091183696,205.0180094
1348351,1,1481,BOUMBA,BIWALA,CM,3.22,11.92,10340,467,,,,,1965,1980,16,15.34391534,1965,1980,16,105.318,3.321308448,321.2097145
3268130,3,3681,"GRANDE DE TARIJA, RIO",ALGARROBITO (1971: SAN TELMO),AR,-22.58,-64.23,10460,450,,,,,1964,1980,17,0,1964,1980,17,111.291,3.509672976,335.5327893
2416890,2,2161,NORIN,NARYN,KG,41.43,76.02,10500,2039,,,,,1933,1980,48,0.868055556,1933,1980,48,86.621,2.731679856,260.1599863
2311350,2,2111,TERISAQQAN,GAGARINA,KZ,50.9,67.72,11000,-999,,,,,1964,1980,17,78.17258883,1964,1980,17,n.a.,n.a.,n.a.
1338201,1,1381,LOM,BETARE-OYA,CM,5.92,14.13,11100,662,,,,,1951,1980,30,1.680672269,1951,1980,30,177.329,5.592247344,503.806067
1448500,1,1481,LIKOUALA AUX HERBES,EPENA,CG,1.35,17.48,11300,-999,1978,1980,3,0.273722628,1978,1980,3,0,1978,1980,3,83.204,2.623921344,232.2054287
1447600,1,1471,MAMBILI,YENGO,CG,0.38,15.48,12000,335,1978,1980,3,0.091240876,1978,1980,3,0,1978,1980,3,193.81,6.11199216,509.33268
1447300,1,1471,LEFINI,BWAMBE,CG,-2.91,15.65,13500,310,1978,1980,3,0.547445255,1978,1980,3,0,1978,1980,3,415.974,13.11815606,971.715264
6457300,6,6571,SWEDRNIA,DEBE,PL,51.79305556,18.20277778,13760.1,106.88,1960,1981,22,0,1960,1980,21,0,1960,1981,22,1.934,0.060990624,4.432425927
3628700,3,3281,"SUCUNDURI, RIO",SANTAREM,BR,-6.75,-58.93,14597,-999,1975,2010,36,0.64293555,1978,1980,3,0,1975,2010,36,444.302,14.01150787,959.8895576
2911681,2,2111,MIASS,KARACHELSKOJE,RU,55.38,63.22,14600,-999,,,,,1954,1980,27,2.201257862,1954,1980,27,14.73,0.46452528,31.8168
1338252,1,1381,MBAM,MANTOUM,CM,5.62,11.18,14700,660,,,,,1965,1980,16,0.529100529,1965,1980,16,321.738,10.14632957,690.2265012
1495200,1,1951,RUNDE,TOKWE CONFLUENCE U/S C/S,ZW,-21.17,31.2,17100,-999,,,,,1962,1980,19,0,1962,1980,19,48.502,1.529559072,89.44789895
4664800,4,4641,"LEMPA, RIO",SAN MARCOS,SV,13.43,-88.7,18176,5,,,,,1965,1980,16,14.73684211,1965,1980,16,377.622,11.90868739,655.1874665
4244660,4,4440,LITTLE MECATINA RIVER,EN AMONT DE LA RIVIERE NETAGAMIOU,CA,50.8686,-59.5992,19100,50,1965,1980,16,10.17866811,1965,1980,16,11.53846154,1965,1980,16,495.48,15.62545728,818.0867686
3274150,3,3741,"SALI, RIO",EL SAUCE (1967: EMBALSE RIO HONDO),AR,-27.58,-64.5,20200,250,,,,,1925,1980,56,1.676829268,1925,1980,56,88.693,2.797022448,138.4664578
1348152,1,1481,KADEI,PANA,CM,4.2,14.68,20370,570,,,,,1965,1980,16,8.854166667,1965,1980,16,239.984,7.568135424,371.5334032
1491210,1,1911,GWAYI,DAHLIA CONTROL SECTION (63351138),ZW,-18.6,27.166667,20371,-999,1966,1990,25,9.867670545,1966,1980,15,8.333333333,1966,1990,25,6.643,0.209493648,10.28391576
1338600,1,1381,DJEREM,MBAKAOU,CM,6.33,12.82,20390,826,,,,,1959,1980,22,0.396825397,1959,1980,22,386.52,12.18929472,597.8074899
6457870,6,6571,WARTA,NOWA WIES PODGORNA,PL,52.14166667,17.59,20755.9,66.925,1960,2020,61,0.004563085,1960,1980,21,0,1960,2020,61,90.959,2.868483024,138.2008501
1495240,1,1951,RUNDE,TOKWE CONFLUENCE D/S C/S,ZW,-21.13,31.27,23000,-999,,,,,1962,1980,19,0,1962,1980,19,66.934,2.110830624,91.77524452
3664802,3,3641,"IGUACU, RIO",UNIAO DA VITORIA,BR,-26.22806,-51.08028,24211,670,1930,2017,88,0.197133738,1930,1980,51,0.662251656,1930,2017,88,494.118,15.58250525,643.6126243
3268150,3,3681,"BERMEJO, RIO",ZANJA DEL TIGRE,AR,-23.1,-64.22,24931.2,2,,,,,1940,1980,41,0,1940,1980,41,310.316,9.786125376,392.5252445
1335014,1,1351,BENUE RIVER,RIAO,CM,9.05,13.68,30650,186,,,,,1950,1980,31,9.315068493,1950,1980,31,241.201,7.606514736,248.1734008
3265030,3,3651,"PASAJE, RIO",MIRAFLORES,AR,-25.37,-64.83,34500,610,,,,,1929,1980,52,5.161290323,1929,1980,52,33.781,1.065317616,30.87877148
2416860,2,2161,NORIN,UST. KEKIRIM,KG,41.42,73.98,34600,1234,,,,,1934,1980,47,6.951871658,1934,1980,47,204.398,6.445895328,186.2975528
3265070,3,3651,"PASAJE, RIO",EL TUNAL,AR,-25.23,-64.47,38000,425,,,,,1941,1980,40,0,1941,1980,40,37.467,1.181559312,31.09366611
1338300,1,1381,MBAM,GOURA,CM,4.57,11.37,42300,396,,,,,1951,1980,30,0.574712644,1951,1980,30,709.251,22.36693954,528.7692562
4214700,4,4142,"EASTMAIN, RIVIERE",TETE DE LA GORGE DE BASILE,CA,52.25,-78.07,44300,35,1958,1980,23,3.907902925,1959,1980,22,0,1958,1980,23,908.31,28.64446416,646.6018998
4244620,4,4443,"MANICOUAGAN, RIVIERE",CENTRALE MCCORMICK,CA,49.2014,-68.3389,45800,37,1946,1980,35,5.814508431,1946,1980,35,5.811138015,1946,1980,35,871.346,27.47876746,599.9730886
2998504,2,2982,KOLYMA,DUSCANIA,RU,61.65,148.83,50100,-999,,,,,1948,1980,33,0,1948,1980,33,341.142,10.75825411,214.735611
2908010,2,2081,BIRYUSA,PHEDINO,RU,57.37,96.63,51000,-999,,,,,1937,1980,44,0,1937,1980,44,351.7,11.0912112,217.4747294
1335500,1,1351,BENUE RIVER,GAROUA,CM,9.3,13.38,64000,174,,,,,1930,1980,51,25.45454545,1930,1980,51,353.787,11.15702683,174.3285443
1634700,1,1341,"NIGER, RIVER",DIALAKORO,GN,11.42,-8.91,71000,-999,1954,1980,27,40.27135368,1954,1980,27,40.3125,1954,1980,27,1153.365,36.37251864,512.2889949
1338400,1,1381,SANAGA,NACHTIGAL,CM,4.35,11.63,76000,426,,,,,1951,1980,30,0,1951,1980,30,1075.476,33.91621114,446.265936
6457880,6,6571,LISWARTA,NIWKI,PL,50.82083333,18.6625,109810.7,231.505,1960,2020,61,0,1960,1980,21,0,1960,2020,61,1.453,0.045821808,0.417279992
1338050,1,1381,SANAGA,EDEA,CM,3.77,10.07,131520,12,,,,,1943,1980,38,0,1943,1980,38,1991.645,62.80851672,477.5586734
1496500,1,1961,LIMPOPO RIVER,BEITBRIDGE PUMPSTATION C/S (63533035),ZW,-22.216667,29.983333,208784,-999,1959,1990,32,23.28888104,1959,1980,22,2.777777778,1959,1990,32,66.551,2.098752336,10.05226615
4203200,4,4031,YUKON RIVER,DAWSON,CA,64.07,-139.43,264000,310,1945,1980,36,10.10247782,1945,1980,36,10.25641026,1945,1980,36,2222.336,70.0835881,265.4681367
3666020,3,3661,"PARAGUAY, RIO",PORTO ESPERANCA (DNOS),BR,-19.6006,-57.4372,363500,79.66,1963,2014,52,2.341525156,1964,1980,17,0,1963,2014,52,2098.901,66.19094194,182.0933753
2908103,2,2081,ANGARA,ANGARSK,RU,52.57,103.95,598000,-999,1967,1980,14,34.93804591,1967,1980,14,39.7515528,1967,1980,14,2178.267,68.69382811,114.8726223
2912601,2,2121,OB',KAZHUM MIS-YAMO,RU,64.67,65.63,2350000,-999,,,,,1976,1980,5,0,1976,1980,5,13257.118,418.0764732,177.9048822
6970804,6,6701,KEM',YURYAHMYA,RU,64.93,32.03,10300,-999,,,,,1976,1981,6,0,1976,1981,6,99.921,3.151108656,305.9328792
2340200,2,2401,KUNAR SIND,CHITRAL,PK,35.83,71.8,11396,-999,1978,1981,4,0.205338809,1978,1981,4,0,1978,1981,4,255.578,8.059907808,707.2576174
6546801,6,6461,DRAVA RIVER,BORL,SI,46.371,15.9962,14661.5,201.486,1954,1981,28,0,1954,1981,28,0,1954,1981,28,304.083,9.589561488,654.0641468
2911657,2,2111,LOZ'VA,SHABUROVO,RU,59.63,62.17,17300,-999,,,,,1968,1981,14,33.33333333,1968,1981,14,135.867,4.284701712,247.6706192
4355750,4,4555,"VERDE, RIO",PASO DE LA REYNA,MX,16.275,-97.5917,17617,50,1960,1987,28,4.08142999,1976,1981,6,0,1960,1987,28,167.237,5.273986032,299.3691339
4355080,4,4553,"SAN PEDRO, RIO",SAN PEDRO,MX,21.9667,-105.15,25800,54,1944,2003,60,4.074834588,1976,1981,6,20.83333333,1944,2003,60,88.009,2.775451824,107.5756521
1286700,1,1861,KILOMBERO,SWERO,TZ,-8.2,37,33400,245,1957,1981,25,16.72160964,1957,1981,25,13.14878893,1957,1981,25,471.909,14.88212222,445.5725217
4355300,4,4552,"FUERTE NUEVO, RIO",SAN MIGUEL ZAPOTITLAN,MX,25.9542,-109.0458,34247,20,1960,1989,30,7.462128296,1976,1981,6,0,1960,1989,30,41.967,1.323471312,38.64488311
4214750,4,4142,"BALEINE, GRANDE RIVIERE DE LA",EN AMONT DE LA RIVIERE DE PONTOIS,CA,53.63,-74.53,37000,236,1960,1981,22,0,1960,1981,22,0,1960,1981,22,744.896,23.49104026,634.8929799
4362201,4,4622,GRIJALVA,REFORMA,MX,17.9583,-93.1833,37702,18,1954,1985,32,3.135738832,1947,1981,35,6.904761905,1947,1985,39,239.191,7.543127376,200.0723404
3308400,3,3081,CUYUNI RIVER,KAMARIA FALLS,GY,6.43,-58.82,53400,12,1974,1987,14,64.28711128,1973,1981,9,22.22222222,1973,1987,15,1190.819,37.55366798,703.2522094
4355100,4,4554,"GRANDE DE SANTIAGO, RIO",EL CAPOMAL,MX,21.825,-105.1153,128943,39,1955,2003,49,1.758552446,1956,1981,26,0,1955,2003,49,220.308,6.947633088,53.88142891
1992900,1,1921,SHIRE RIVER,CHIROMO,MW,-16.55,35.13,149500,-999,,,,,1953,1981,29,0.578034682,1953,1981,29,485.822,15.32088259,102.48082
3651805,3,3511,"SAO FRANCISCO, RIO",MANGA,BR,-14.7572,-43.9322,202000,474,1932,2010,79,4.11287478,1932,1981,50,12.20338983,1932,2010,79,2016.605,63.59565528,314.8299766
3650480,3,3508,"PARNAIBA, RIO",PORTO FORMOSA,BR,-3.47,-42.5,290000,20,1963,1975,13,8.11287478,1963,1981,19,6.103286385,1963,1981,19,769.648,24.27161933,83.69523906
3649900,3,3491,"TOCANTINS, RIO",ITUPIRANGA,BR,-5.1281,-49.3242,731270,65.6,1977,2010,34,11.10476967,1969,1981,13,0,1969,2010,42,11577.026,365.0930919,499.2589494
1931580,1,1311,WHITE VOLTA,YILOU,BF,13,-1.55,10100,280,1977,1982,6,1.186672752,1973,1982,10,4.347826087,1973,1982,10,3.045,0.09602712,9.507635644
1426260,1,1261,NZI,FETEKRO,CI,7.77,-4.68,10300,-999,1979,1993,15,80.03285271,1979,1982,4,50,1979,1993,15,19.572,0.617222592,59.9245235
6939050,6,6391,RHONE,"CHANCY, AUX RIPES",CH,46.153,5.9707,10323,388.729,1904,2019,116,0,1965,1982,18,0,1904,2019,116,340.067,10.72435291,1038.879484
2878100,2,2780,TAEDONG-GANG,MIRIM,KP,39.02,125.78,12175,3,,,,,1976,1982,7,0,1976,1982,7,179.819,5.670771984,465.7718262
2335100,2,2351,HUNZA RIVER,DANYOUR BRIDGE,PK,35.92,74.38,12950,-999,1978,1982,5,20.04381161,1978,1982,5,20,1978,1982,5,384.848,12.13656653,937.1866045
2336350,2,2361,JHELUM RIVER,CHINARI,PK,34.15,73.83,13598,-999,1978,1982,5,0.492880613,1978,1982,5,0,1978,1982,5,326.657,10.30145515,757.5713452
4772300,4,4721,"GRANDE DE MATAGALPA, RIO",SAN PEDRO DEL NORTE,NI,13.05,-84.72,14646,-999,1971,1982,12,8.534743202,1971,1982,12,7.575757576,1971,1982,12,486.209,15.33308702,1046.912947
4103820,4,4031,FORTYMILE RIVER,"NEAR STEELE CREEK, ALAS.",US,64.3089,-141.4045,15229.2,365.76,1975,2021,47,50.58710182,1975,1982,8,16.66666667,1975,2021,47,81.282,2.563309152,168.3154172
1427200,1,1271,SASSANDRA,DABALA,CI,8.4,-7.13,16800,-999,1979,1993,15,80.03285271,1979,1982,4,50,1979,1993,15,120.677,3.805669872,226.5279686
1389500,1,1890,IKOPA,ANTSATRANA,MG,-17.42,46.85,18550,-999,,,,,1948,1982,35,3.921568627,1948,1982,35,432.902,13.65199747,735.956737
1931190,1,1311,BLACK VOLTA,KOURI,BF,12.73,-3.48,20000,248,,,,,1955,1982,28,31.07692308,1955,1982,28,29.123,0.918422928,45.9211464
1428200,1,1281,KOMOE,KAFOLO,CI,9.59,-4.29,21300,-999,1979,1993,15,80.14236174,1979,1982,4,50,1979,1993,15,49.3,1.5547248,72.99177465
1426340,1,1261,BANDAMA BLANC,MARABADIASSA,CI,8.11,-5.41,22000,-999,1979,1982,4,50.1026694,1979,1982,4,50,1979,1982,4,82.307,2.595633552,117.9833433
1425500,1,1251,CAVALLY,TATE,CI,4.38,-7.59,28800,-999,1970,1996,27,12.10707767,1979,1982,4,50,1970,1996,27,490.747,15.47619739,537.367965
3669600,3,3691,"IBICUI, RIO",PASSO MARIANO PINTO,BR,-29.3092,-56.0547,42498,60,1944,2020,77,0.433971738,1955,1982,28,3.273809524,1944,2020,77,793.6,25.0269696,588.8975858
4103500,4,4031,KOYUKUK RIVER,"HUGHES, ALAS.",US,66.047,-154.261,47656,76.2,1960,1982,23,1.615625754,1960,1982,23,0.732600733,1960,1982,23,406.362,12.81503203,268.9070008
1445100,1,1451,KOUILOU,SOUNDA,CG,-4.1,12.07,55010,8,,,,,1956,1982,27,13.52201258,1956,1982,27,874.956,27.59261242,501.5926634
4214650,4,4142,"NOTTAWAY, RIVIERE",TETE DU LAC SOSCUMICA,CA,50.13,-77.42,57500,243,1956,1982,27,14.54276037,1960,1982,23,1.858736059,1956,1982,27,1035.527,32.65637947,567.9370343
2181400,2,2811,WU JIANG,GONGTAN,CN,28.9,108.35,58300,-999,,,,,1939,1982,44,8.918406072,1939,1982,44,1150.398,36.27895133,622.2804687
1426200,1,1260,BANDAMA,BAFECAO,CI,6.06,-4.49,59500,-999,1979,1993,15,80.0146012,1979,1982,4,50,1979,1993,15,122.428,3.860889408,64.88889761
4214550,4,4142,MOOSE RIVER,MOOSE RIVER CROSSING,CA,50.813889,-81.294444,61100,29,1959,1982,24,0,1959,1982,24,0,1959,1982,24,780.4,24.6106944,402.793689
1427500,1,1271,SASSANDRA,SOUBRE,CI,5.76,-6.6,62000,-999,1970,1996,27,9.328736565,1979,1982,4,50,1970,1996,27,321.64,10.14323904,163.6006297
1664100,1,1641,"ATBARA, NAHR",KILO 3,SD,17.681,34.003,69000,334,,,,,1912,1982,71,7.042253521,1912,1982,71,376.201,11.86387474,171.9402136
1428500,1,1281,KOMOE,MBASSO,CI,6.29,-3.49,69900,-999,1970,1996,27,8.233624011,1979,1982,4,50,1970,1996,27,128.989,4.067797104,58.19452223
1431300,1,1311,BLACK VOLTA,VONKORO,CI,9.19,-2.71,111500,-999,1979,1993,15,80.81766746,1979,1982,4,50,1979,1993,15,115.275,3.6353124,32.60369865
4214060,4,4141,THELON RIVER,ABOVE BAKER LAKE,CA,64.4,-96.41,154000,-999,1973,1982,10,2.081051479,1973,1982,10,4.166666667,1973,1982,10,716.728,22.60273421,146.7710014
1663800,1,1631,BLUE NILE,ROSEIRES DAM,SD,11.85,34.38,210000,-999,,,,,1912,1982,71,0,1912,1982,71,1557.562,49.11927523,233.9013106
1666100,1,1661,"SOBAT, RIVER",HILLET DOLEIB,SS,9.37,31.63,230666,-999,,,,,1905,1982,78,32.7991453,1905,1982,78,38.249,1.206220464,5.229294582
1472300,1,1721,VICTORIA NILE,OWEN RESERVOIR,UG,0.47,33.12,269000,-999,,,,,1973,1982,10,0,1973,1982,10,1176.158,37.09131869,137.8859431
1663100,1,1631,BLUE NILE,KHARTOUM,SD,15.62,32.55,325000,363,,,,,1900,1982,83,1.104417671,1900,1982,83,1573.681,49.62760402,152.70032
1673900,1,1731,WHITE NILE,MONGALLA,SS,5.2,31.77,450000,-999,,,,,1912,1982,71,0,1912,1982,71,1051.059,33.14619662,73.65821472
1673600,1,1731,WHITE NILE,MALAKAL,SS,9.58,31.62,1080000,375,,,,,1912,1982,71,0,1912,1982,71,939.915,29.64115944,27.445518
1673100,1,1731,WHITE NILE,MOGRAN,SD,15.61,32.49,1588194,-999,,,,,1973,1982,10,0,1973,1982,10,897.586,28.3062721,17.82293101
2428200,2,2281,"QOMRUD, RUDKHANEH-YE FASLI-YE",ABBAS-ABAD,IR,34.082778,50.604722,10184,1424,1996,2016,21,35.01711157,1977,1983,7,1.369863014,1977,2016,40,0.951,0.029990736,2.944887667
4208492,4,4081,FINLAY RIVER,WARE,CA,57.42,-125.62,11100,-999,1960,1983,24,6.450856205,1960,1983,24,7.142857143,1960,1983,24,192.434,6.068598624,546.7205968
4244630,4,4444,"NATASHQUAN, RIVIERE",EN AVAL DE LA RIVIERE NATASHQUAN EST,CA,51.1417,-61.6111,11600,-999,1966,1983,18,0,1966,1983,18,0,1966,1983,18,296.616,9.354082176,806.3863945
1425350,1,1251,CAVALLY,TAI,CI,5.85,-7.43,13750,-999,1979,1982,4,50.03422313,1982,1983,2,0,1979,1983,5,176.229,5.557557744,404.1860177
1389350,1,1898,MAHAJILO,MIANDRIVAZO,MG,-19.5,45.5,14375,-999,,,,,1981,1983,3,0,1981,1983,3,445.061,14.0354437,976.3786919
3652419,3,3521,"ARACUAI, RIO",ARACUAI,BR,-16.8503,-42.0631,16230,270,1931,2010,80,0.670863866,1931,1983,53,0.316455696,1931,2010,80,96.608,3.046629888,187.7159512
1445050,1,1451,NIARI,KAYES,CG,-4.17,13.3,17190,115,,,,,1969,1983,15,0,1969,1983,15,315.094,9.936804384,578.0572649
1389330,1,1898,MANIA,ANKOTROFOTSY,MG,-19.8,45.53,17990,-999,,,,,1980,1983,4,0,1980,1983,4,486.107,15.32987035,852.1328712
1426300,1,1261,BANDAMA ROUGE,BOUAFLE,CI,6.96,-5.76,19800,-999,1979,1993,15,80.03285271,1982,1983,2,0,1979,1993,15,57.907,1.826155152,92.23005818
1931295,1,1311,BLACK VOLTA,MANIMENSO,BF,12.75,-3.4,20000,247,,,,,1956,1983,28,0,1956,1983,28,24.583,0.775249488,38.7624744
6691650,6,6910,CEYHAN NEHRI,YAKAPINAR (MISIS),TR,36.95,35.6,20466,13,1975,1986,12,36.36137382,1970,1983,14,0,1970,1986,17,296.482,9.349856352,456.8482533
1445490,1,1451,NIARI,LOUDIMA,CG,-4.12,13.08,23385,105,,,,,1969,1983,15,0,1969,1983,15,378.593,11.93930885,510.5541521
2423800,2,2231,"KARUN, RUDKHANEH-YE",POL-E-SHALU,IR,31.75,50.13,23400,700,1957,2004,48,2.840420038,1976,1983,8,0,1957,2004,48,281.9,8.8899984,379.9144615
6667400,6,6670,BUYUK MENDERES NEHRI,SOEKE,TR,37.751251,27.415417,23889,10,1975,1982,8,14.27454048,1976,1983,8,0,1975,1983,9,112.63,3.55189968,148.6834811
3651309,3,3511,"VELHAS, RIO DAS",VARZEA DA PALMA,BR,-17.5947,-44.7139,26500,464,1938,2010,73,0.637015129,1938,1983,46,16.66666667,1938,2010,73,312.169,9.844561584,371.49289
4214930,4,4143,"ARNAUD, RIVIERE",EN AMONT DE LA RIVIERE HAMELIN,CA,59.98,-71.9,26900,30,1954,1983,30,28.14281709,1962,1983,22,0,1954,1983,30,346.119,10.91520878,405.7698433
1427350,1,1271,SASSANDRA,SEMIEN,CI,7.69,-7.06,28800,-999,1979,1993,15,80.0146012,1982,1983,2,0,1979,1993,15,218.003,6.874942608,238.713285
1426350,1,1261,NZI,ZIENOA,CI,6,-4.82,35000,-999,1979,1993,15,81.57796799,1982,1983,2,0,1979,1993,15,22.453,0.708077808,20.23079451
1389230,1,1898,TSIRIBIHINA,BETOMBA,MG,-19.72,44.96,45000,-999,,,,,1958,1983,26,3.322259136,1958,1983,26,982.18,30.97402848,688.311744
4362600,4,4621,USUMACINTA,BOCA DEL CERRO,MX,17.4333,-91.4833,47697,60,1948,2002,55,5.967750038,1949,1983,35,0.952380952,1948,2002,55,1930.633,60.88444229,1276.483684
1428300,1,1281,KOMOE,SEREBOU,CI,7.95,-3.94,48700,-999,1979,1993,15,82.89833911,1982,1983,2,5,1979,1993,15,129.823,4.094098128,84.06772337
1389090,1,1893,MANGOKY,BEVOAY,MG,-21.83,43.87,53225,-999,,,,,1964,1983,20,31.57894737,1964,1983,20,595.294,18.77319158,352.7137921
6688150,6,6882,SAKARYA NEHRI,BOTBASI,TR,40.97,30.52,55322,8,1975,1986,12,27.25236436,1976,1983,8,0,1975,1986,12,202.23,6.37752528,115.2800925
1426210,1,1260,BANDAMA,BRIMBO,CI,6,-4.43,60200,-999,1993,1993,1,0,1982,1983,2,0,1982,1993,12,77.474,2.443220064,40.5850509
6688600,6,6881,KIZILIRMAK,INOEZUEKOSACA,TR,41.366667,35.833333,75121,60,1975,1986,12,27.25236436,1976,1983,8,0,1975,1986,12,206.373,6.508178928,86.63594638
1426380,1,1261,BANDAMA,TIASSALE,CI,5.88,-4.75,95500,-999,1970,1996,27,1.399310485,1954,1983,30,40,1954,1996,43,175.339,5.529490704,57.90042622
3650485,3,3508,"PARNAIBA, RIO",FLORIANO,BR,-6.76667,-43.01667,135550,85,1981,1983,3,2.922374429,1981,1983,3,4.347826087,1981,1983,3,411.258,12.96943229,95.68006114
1448100,1,1481,SANGHA,OUESSO,CG,1.62,16.05,158350,236,,,,,1947,1983,37,1.154734411,1947,1983,37,1665.056,52.50920602,331.6021851
2311106,2,2111,IRTYSH,PYANY YAR,KZ,50.33,81.5,166500,-999,,,,,1980,1983,4,31.81818182,1980,1983,4,n.a.,n.a.,n.a.
4126800,4,4261,RED RIVER,"ALEXANDRIA, LA.",US,31.313,-92.4429,174825,13.49,1928,1983,56,0,1928,1983,56,1.818181818,1928,1983,56,872.09,27.50223024,157.3129143
3649250,3,3491,"TOCANTINS, RIO",PORTO NACIONAL,BR,-10.76667,-48.4,177800,-999,,,,,1949,1983,35,0.715990453,1949,1983,35,2199.469,69.36245438,390.1150415
4127800,4,4271,MISSISSIPPI RIVER,"VICKSBURG, MS",US,32.315,-90.9058,2964255,14.09,1931,2021,91,1.294041888,1928,1983,56,63.22869955,1928,2021,94,17814.623,561.8019509,189.5255135
1147010,1,1471,CONGO RIVER,KINSHASA,CD,-4.3,15.3,3475000,-999,1903,2010,108,0.038025705,1903,1983,81,0,1903,2010,108,39863.659,1257.14035,361.7670073
1447150,1,1471,CONGO RIVER,BRAZZAVILLE,CG,-4.27,15.32,3475000,270,,,,,1971,1983,13,0,1971,1983,13,41125.969,1296.948558,373.2226067
2496700,2,2960,"MINAB, RUDKHANEH-YE",BERANTIN,IR,27.2725,57.191389,10200,130,1962,2016,55,2.418496172,1965,1984,20,27.19665272,1962,2016,55,7.658,0.241502688,23.67673412
3649012,3,3491,"ALMAS, RIO DAS",CERES (POSTO BIQUINHA),BR,-15.27528,-49.55194,10538,549,1964,2013,50,0,1964,1984,21,4.74137931,1964,2013,50,169.461,5.344122096,507.1286863
4462700,4,4621,"SAN PEDRO, RIO",SAN PEDRO MACTUN,GT,17.26,-90.75,10820,60,,,,,1980,1984,5,0,1980,1984,5,43.818,1.381844448,127.7120562
4462300,4,4621,"SALINAS, RIO",SAN AUGUSTIN,GT,16.07,-90.43,10910,131,,,,,1976,1984,9,37.96296296,1976,1984,9,518.636,16.3557049,1499.14802
2319500,2,2191,ELEK,AKTUBINSK,KZ,50.28,57.15,11000,201,,,,,1969,1984,16,0,1969,1984,16,14.792,0.466480512,42.40731927
3649030,3,3491,"MARANHAO, RIO",PONTE QUEBRA LINHA,BR,-14.9775,-48.67389,11008,522,1966,2013,48,0,1964,1984,21,14.22413793,1964,2013,50,144.557,4.558749552,414.1305916
5553100,5,5531,PURARI RIVER,WABO DAM SITE,PG,-7,145.07,11100,-999,,,,,1961,1984,24,73.1884058,1961,1984,24,2457.07,77.48615952,6980.735092
1495700,1,1951,"SAVE, RIO",CONDO D/S G/W (63422121),ZW,-19.216667,32.016667,11174,-999,1956,1990,35,6.498631019,1955,1984,30,4.597701149,1955,1990,36,41.794,1.318015584,117.9537841
3179800,3,3793,"LIMARI, RIO",PANAMERICANA,CL,-30.63,-71.57,11343,97,1958,2017,60,11.99218205,1966,1984,19,44.29824561,1958,2017,60,5.604,0.176727744,15.58033536
1287800,1,1871,BUBU,BAHI,TZ,-5.97,35.3,11400,860,,,,,1960,1984,25,1.006711409,1960,1984,25,5.247,0.165469392,14.51485895
3652030,3,3526,"ITAPICURU, RIO",QUEIMADAS,BR,-10.97333,-39.63278,11825,265,1934,2020,87,2.073244073,1934,1984,51,8.745874587,1934,2020,87,14.359,0.452825424,38.29390478
4147380,4,4475,MERRIMACK RIVER,"BELOW CONCORD RIVER AT LOWELL, MA",US,42.6459,-71.2984,12004.7,1.58,1923,2021,99,0,1965,1984,20,0,1923,2021,99,225.453,7.109885808,592.2585161
2311475,2,2111,SHERUBAY-NURA,SERGIOPOLSKOYE,KZ,50.07,73.35,12300,488,,,,,1965,1984,20,1.25,1965,1984,20,10.834,0.341661024,27.77731902
4133750,4,4331,GRAND RIVER,"GRAND RAPIDS, MICH.",US,42.9645,-85.6764,12691,178.52,1901,2021,121,20.55626308,1965,1984,20,0,1901,2021,121,112.537,3.548966832,279.6443804
3628701,3,3281,"SUCUNDURI, RIO",SANTAREM SUCUNDURI,BR,-6.7956,-59.0422,12700,49,1975,2019,45,0.362965241,1973,1984,12,10.07751938,1973,2019,47,453.451,14.30003074,1125.986672
6226600,6,6261,"SEGRE, RIO",SEROS,ES,41.45289,0.41971,12782,85,1925,2017,93,21.93379376,1925,1984,60,32.25352113,1925,2017,93,80.638,2.542999968,198.9516483
2316500,2,2161,ARYS,ARYS,KZ,42.42,68.77,13100,222,,,,,1965,1984,20,0,1965,1984,20,20.762,0.654750432,49.98094901
3142500,3,3421,"PATIA, RIO",PTE PUSMEO,CO,1.7,-77.62,13147,1975,,,,,1971,1984,14,11.30952381,1971,1984,14,288.042,9.083692512,690.9327232
2314450,2,2141,QARATAL,USH-TOBE,KZ,45.27,77.85,13200,423,,,,,1965,1984,20,0.833333333,1965,1984,20,56.152,1.770809472,134.1522327
6887320,6,6870,RIONI,SAKOCHAKIDZE,GE,42.22,41.8,13330,2,,,,,1965,1984,20,0,1965,1984,20,408.549,12.88400126,966.5417302
4118850,4,4182,SEVIER RIVER,"JUAB, UT",US,39.3747,-112.0396,13377.4,1505.71,1911,2021,111,0,1965,1984,20,0,1911,2021,111,7.068,0.222896448,16.66216514
2428350,2,2281,ZAYANDEH RUD,POL-E-KHAJU,IR,32.63,51.68,14320,1570,1949,1990,42,23.415342,1980,1984,5,0,1949,1990,42,19.996,0.630593856,44.0358838
1870600,1,1701,NYABARONGO,KANZENZE,RW,-2.06,30.11,14600,1338,,,,,1965,1984,20,3.75,1965,1984,20,109.333,3.447925488,236.15928
3179200,3,3790,"MAIPO, RIO",CABIMBAO,CL,-33.77,-71.53,14823,35,1939,2018,80,48.32899531,1966,1984,19,37.28070175,1939,2018,80,134.433,4.239479088,286.0068197
3635600,3,3351,"ARIPUANA, RIO",HUMBOLDT,BR,-10.1675,-59.4644,15200,181,1979,2019,41,4.663494222,1979,1984,6,32.30769231,1979,2019,41,297.172,9.371616192,616.5536968
6111100,6,6111,"MINO, RIO",FOZ DO MOURO,PT,42.08,-8.38,15457,9,1982,1989,8,14.35275714,1976,1984,9,0,1976,1989,14,343.465,10.83151224,700.7512609
4133200,4,4331,FOX RIVER,"RAPID CROCHE DAM NEAR WRIGHTSTOWN, WIS.",US,44.3175,-88.1973,15565.9,-999,1917,2013,97,0,1965,1984,20,0,1917,2013,97,122.238,3.854897568,247.6501563
2707100,2,2071,DELGER MORON,MUREN,MN,49.58,100.13,16300,1259,,,,,1947,1984,38,54.8245614,1947,1984,38,34.53,1.08893808,66.80601718
4135200,4,4351,MAUMEE RIVER,"WATERVILLE, OHIO",US,41.5001,-83.7127,16394.7,181.57,1898,2021,124,18.86048015,1965,1984,20,0,1898,2021,124,150.088,4.733175168,288.7015418
4147010,4,4476,PENOBSCOT RIVER,"WEST ENFIELD, ME.",US,45.2367,-68.6486,16633,38.39,1902,2021,120,0,1902,1984,83,0,1902,2021,120,346.808,10.93693709,657.5444651
4147320,4,4474,JAMES RIVER,"NEAR RICHMOND, VA.",US,37.5632,-77.5469,17503.2,30.12,1934,2021,88,0,1965,1984,20,0,1934,2021,88,200.524,6.323724864,361.2896421
4147600,4,4472,DELAWARE RIVER,"TRENTON, N.J.",US,40.2217,-74.7781,17560.2,-999,1912,2020,109,0,1912,1984,73,0,1912,2020,109,340.044,10.72362758,610.6779868
2876500,2,2761,YALU RIVER,KUMCHANG,KP,41.53,127.13,18245,416,,,,,1976,1984,9,0,1976,1984,9,129.248,4.075964928,223.40175
1591470,1,1911,KAFUE,NDUBENI,ZM,-13.4,27.82,18509,-999,1963,2005,43,27.81708258,1980,1984,5,6.666666667,1963,2005,43,129.093,4.071076848,219.9512047
1259150,1,1591,ORANGE RIVER,SEAKA BRIDGE (66819303),LS,-30.363333,27.575,19756,1400,1975,1989,15,18.72777558,1972,1984,13,0,1972,1989,18,111.387,3.512700432,177.8042332
4149780,4,4494,SUWANNEE RIVER,"BRANFORD, FLA.",US,29.9558,-82.9276,20409.2,1.47,1931,2020,90,0,1965,1984,20,0,1931,2020,90,190.906,6.020411616,294.9851839
4150680,4,4504,NECHES RIVER,"EVADALE, TEX.",US,30.3558,-94.0932,20593,2.52,1904,2021,118,12.20450281,1965,1984,20,0.416666667,1904,2021,118,178.266,5.621796576,272.9955119
4147500,4,4473,HUDSON RIVER,"GREEN ISLAND, N.Y.",US,42.7523,-73.689,20953,0.09,1946,2020,75,3.515067189,1946,1984,39,0,1946,2020,75,410.374,12.94155446,617.6468508
4148090,4,4484,ROANOKE RIVER,"ROANOKE RAPIDS, N.C.",US,36.4605,-77.6345,21714.6,13.36,1912,2021,110,0.004990269,1965,1984,20,0,1912,2021,110,230.88,7.28103168,335.3058164
2744200,2,2441,HOVD GOL,ULGI,MN,48.98,89.95,22057,-999,,,,,1976,1984,9,0,1976,1984,9,51.903,1.636813008,74.20832425
4148300,4,4483,PEE DEE RIVER,"PEEDEE, S.C.",US,34.2043,-79.5484,22869.7,7.54,1938,2021,84,0.009942664,1938,1984,47,0,1938,2021,84,270.226,8.521847136,372.6261007
2707600,2,2071,ORHON GOL,ORKHON,MN,48.65,103.57,23600,-999,,,,,1952,1984,33,57.57575758,1952,1984,33,46.433,1.464311088,62.04708
3186500,3,3861,"BAKER, RIO",COLONIA,CL,-47.35,-72.85,23736,105,2011,2018,8,29.14285714,1963,1984,22,0,1963,2018,56,n.a.,n.a.,n.a.
6142150,6,6421,MORAVA,MORAVSKY JAN,SK,48.60213,16.93585,24129,146,1921,2017,97,0,1931,1984,54,0,1921,2017,97,105.412,3.324272832,137.7708497
3635550,3,3351,"ROOSEVELT, RIO",CONCISA,BR,-9.8169,-60.6919,24300,107,1976,2000,25,3.448275862,1976,1984,9,37.5,1976,2000,25,775.951,24.47039074,1007.011964
2906800,2,2061,USSURI RIVER,KIROVSKY,RU,45.02,133.65,24400,79,,,,,1965,1984,20,0,1965,1984,20,222.9,7.0293744,288.0891148
4147460,4,4471,CONNECTICUT RIVER,"THOMPSONVILLE, CT",US,41.9873,-72.6054,25019.4,11.73,1928,2021,94,0,1928,1984,57,0,1928,2021,94,490.091,15.45550978,617.741024
6226300,6,6261,"EBRO, RIO",CASTEJON,ES,42.18008,-1.69474,25194,265,1929,2017,89,18.97269783,1929,1984,56,27.38095238,1929,2017,89,229.308,7.231457088,287.0309236
4148650,4,4487,SAVANNAH RIVER,"NEAR CLYO, GA.",US,32.5282,-81.2687,25511.5,4.08,1929,2021,93,4.408727665,1929,1984,56,7.272727273,1929,2021,93,317.585,10.01536056,392.5821908
6243850,6,6431,INN,SCHAERDING,AT,48.4361,13.4417,25663.8,299.8,1951,2017,67,0,1930,1984,55,0,1930,2017,88,729.373,23.00150693,896.2627097
3636500,3,3361,"MAPUERA, RIO",ESTIRAO DA ANGELICA,BR,-1.1006,-57.0569,26040,11.83,1970,1999,30,11.9345434,1970,1984,15,0,1970,1999,30,656.714,20.7101327,795.3199963
3103150,3,3031,"CAUCA, RIO",LA PINTADA,CO,5.73,-75.6,27452,-999,,,,,1969,1984,16,43.75,1969,1984,16,790.178,24.91905341,907.7318013
6421100,6,6211,MAAS,LITH,NL,51.82,5.45,29000,5,1911,2018,108,0.190128527,1911,1984,74,0,1911,2018,108,317.311,10.0067197,345.0592999
4147900,4,4477,POTOMAC RIVER,"NEAR WASHINGTON, D.C. (ADJUSTED)",US,38.9496,-77.1275,29940.4,11.57,1930,2021,92,0,1930,1984,55,0,1930,2021,92,339.295,10.70000712,357.3768928
1870800,1,1701,KAGERA,RUSUMO,RW,-2.38,30.79,30200,1290,,,,,1965,1984,20,4.60251046,1965,1984,20,224.071,7.066303056,233.9835449
1931785,1,1311,WHITE VOLTA,YAKALA,BF,11.35,-0.7,33000,-999,1977,1977,1,11.78082192,1956,1984,29,16.76300578,1956,1984,29,20.166,0.635954976,19.27136291
6978500,6,6781,MEDVEDITSA,ARCHEDINSKAYA,RU,49.889722,43.118333,33700,64,,,,,1965,1984,20,0,1965,1984,20,51.675,1.6296228,48.35675964
4148720,4,4481,ALTAMAHA RIVER,"DOCTORTOWN, GA.",US,31.6547,-81.8279,35224,7.46,1931,2021,91,0.313756549,1931,1984,54,0,1931,2021,91,372.856,11.75838682,333.8174772
6935050,6,6351,RHINE RIVER,BASEL(ST.ALBAN),CH,47.5551,7.5994,35901,293.891,1945,1982,38,0,1965,1984,20,0,1945,1984,40,1047.033,33.01923269,919.730166
6546800,6,6461,DRAVA RIVER,DONJI MIHOLJAC,HR,45.766251,18.1675,37142,88,,,,,1921,1984,64,3.125,1921,1984,64,556.877,17.56167307,472.8251864
1733500,1,1331,OUEME,SAGON,BJ,7.17,2.43,37980,-999,1951,1984,34,19.17081531,1951,1984,34,15.90909091,1951,1984,34,159.582,5.032577952,132.5060019
4148550,4,4486,SANTEE RIVER,"PINEVILLE, S.C.",US,33.45,-80.15,38073,7,,,,,1965,1984,20,0,1965,1984,20,62.632,1.975162752,51.8783062
1491200,1,1911,GWAYI,KAMATIVI G/W,ZW,-18.37,27.05,38600,-999,,,,,1955,1984,30,0,1955,1984,30,23.587,0.743839632,19.27045679
2706100,2,2061,KERULEN RIVER,UNDURKHAM,MN,47.32,110.67,39400,-999,,,,,1976,1984,9,0,1976,1984,9,17.974,0.566828064,14.38649909
4118440,4,4180,HUMBOLDT RIVER,"NEAR IMLAY, NV",US,40.6924,-118.2043,40155.2,1258.82,1935,2021,87,3.846885703,1965,1984,20,0,1935,2021,87,7.588,0.239295168,5.959257282
6226400,6,6261,"EBRO, RIO",ZARAGOZA,ES,41.65857,-0.88106,40434,189,1913,2017,105,11.45874173,1913,1984,72,5.902777778,1913,2017,105,223.341,7.043281776,174.1920605
6729400,6,6292,GLOMMA,LANGNES,NO,59.609165,11.118062,40540,101,1901,2018,118,0,1901,1984,84,0,1901,2018,118,692.819,21.84873998,538.9427722
5550500,5,5501,SEPIK RIVER,AMBUNTI,PG,-4.22,142.16,40922,40,,,,,1980,1984,5,17.24137931,1980,1984,5,3801.959,119.898579,2929.929598
2911702,2,2111,KONDA,MEZHDURECHENSKY,RU,60.15,64.83,41200,-999,,,,,1958,1984,27,19.48881789,1958,1984,27,192.326,6.065192736,147.2134159
6212410,6,6121,"DOURO, RIO",TORO,ES,41.51511,-5.41283,41808,637,1912,2017,106,14.51650485,1980,1984,5,0,1912,2017,106,109.952,3.467446272,82.93738691
4150280,4,4503,NUECES RIVER,"NEAR MATHIS, TEX.",US,28.0383,-97.8603,43149.4,8.09,1939,2020,82,0.006732647,1965,1984,20,0,1939,2020,82,17.971,0.566733456,13.13421406
4149630,4,4492,APALACHICOLA RIVER,"CHATTAHOOCHEE, FLA.",US,30.701,-84.8591,44548,12,1922,2020,99,0,1928,1984,57,0,1922,2020,99,605.868,19.10665325,428.9003602
4123080,4,4231,CUMBERLAND RIVER,"NEAR GRAND RIVERS, KY.",US,37.0217,-88.2231,45578.8,91.44,1940,1997,58,1.737929721,1973,1984,12,0.694444444,1940,1997,58,932.785,29.41630776,645.3945203
6681300,6,6811,PIVDENNYY BUH,ALEKSANDROVKA,UA,47.7,31.266667,46200,1,,,,,1965,1984,20,0,1965,1984,20,110.184,3.474762624,75.21131221
3650649,3,3505,"JAGUARIBE, RIO",PEIXE GORDO,BR,-5.2275,-38.1978,48200,50,1961,2020,60,0.701095175,1961,1984,24,9.964412811,1961,2020,60,86.935,2.74158216,56.87929793
2181850,2,2811,GAN JIANG,JIAN,CN,27.1,114.98,56200,-999,,,,,1973,1984,12,0,1973,1984,12,1669.99,52.66480464,937.096168
4149400,4,4491,ALABAMA RIVER,"CLAIBORNE, ALA.",US,31.5468,-87.5125,56894.5,0.12,1930,1975,46,0,1930,1984,55,5.04587156,1930,1984,55,910.833,28.72402949,504.8647846
4146280,4,4464,SACRAMENTO RIVER,"SACRAMENTO, CA",US,38.5866,-121.5055,60885.7,-999,1948,1979,32,0,1948,1984,37,0.694444444,1948,1984,37,673.555,21.24123048,348.8705965
4147700,4,4479,SUSQUEHANNA RIVER,"HARRISBURG, PA.",US,40.2548,-76.8861,62419,88.4,1890,2021,132,0,1890,1984,95,0,1890,2021,132,986.654,31.11512054,498.4879691
4115700,4,4151,PEND OREILLE RIVER,"NEWPORT, WA",US,48.18,-117.03,62678,610,,,,,1965,1984,20,20,1965,1984,20,772.794,24.37083158,388.8259291
3649255,3,3491,"TOCANTINS, RIO",SAO SALVADOR,BR,-12.7425,-48.2367,63522,270,1977,2006,30,4.641592497,1977,1984,8,13.41463415,1977,2006,30,938.48,29.59590528,465.9158288
6373300,6,6731,DAUGAVA,DAUGAVPILS,LV,55.863856,26.514036,64500,86,1936,2020,85,3.130737269,1965,1984,20,0,1936,2020,85,441.434,13.92106262,215.8304283
2906500,2,2061,SELEMDZHA,UST-ULMA,RU,51.95,129.12,67000,169,,,,,1965,1984,20,0,1965,1984,20,658.915,20.77954344,310.1424394
1537450,1,1371,OUHAM,MOISSALA,TD,8.33,17.77,67600,518,1983,1984,2,0.862068966,1951,1984,34,29.00763359,1951,1984,34,504.278,15.90291101,235.2501628
2901300,2,2019,PENZHINA,KAMENSKOYE,RU,62.42,166.03,71600,15,1957,1987,31,0.556438792,1957,1984,28,3.571428571,1957,1987,31,713.023,22.48589333,314.0487895
4123130,4,4231,WABASH RIVER,"MOUNT CARMEL, ILL.",US,38.402,-87.7528,74164.7,112.61,1927,2021,95,0,1965,1984,20,0,1927,2021,95,846.872,26.70695539,360.1033294
3103500,3,3031,"MAGDALENA, RIO",PUERTO BERRIO,CO,6.5,-74.38,74410,1570,,,,,1969,1984,16,18.75,1969,1984,16,2483.026,78.30470794,1052.34119
2186500,2,2861,YONG JIANG,NANNING,CN,22.8,108.37,75500,-999,,,,,1936,1984,49,16.46655232,1936,1984,49,1296.267,40.87907611,541.4447167
2707500,2,2071,SELENGA,CHUTIC,MN,49.37,102.83,92300,-999,,,,,1976,1984,9,0,1976,1984,9,120.151,3.789081936,41.05180862
4123060,4,4231,TENNESSEE RIVER,"PADUCAH, KY.",US,37.02,-88.28,104118,87,,,,,1965,1984,20,0,1965,1984,20,1853.237,58.44368203,561.321597
2311201,2,2111,ISHIM,DOLMATOVO,KZ,55.3,69.47,113000,-999,,,,,1982,1984,3,58.33333333,1982,1984,3,n.a.,n.a.,n.a.
4152550,4,4521,GREEN RIVER,"GREEN RIVER, UTAH",US,38.9861,-110.1512,116161.5,1231.45,1894,2021,128,4.281848685,1965,1984,20,0,1894,2021,128,168.835,5.32438056,45.83601761
4125550,4,4251,CANADIAN RIVER,"NEAR WHITEFIELD, OK",US,35.264,-95.2394,123221.8,144.22,1938,2021,84,0,1965,1984,20,5,1938,2021,84,170.923,5.390227728,43.74410801
1992700,1,1921,SHIRE RIVER,LIWONDE,MW,-15.07,35.2,130200,470,,,,,1965,1984,20,0,1965,1984,20,471.464,14.8680887,114.1942297
3635650,3,3351,"ARIPUANA, RIO",PRAINHA VELHA,BR,-7.2078,-60.65,131000,107,1974,2019,46,0.524475524,1974,1984,11,0,1974,2019,46,3320.262,104.7077824,799.2960491
6544100,6,6441,TISA,SENTA,RS,45.932919,20.0825,140130,74,1971,2010,40,0,1931,1984,54,16.66666667,1931,2010,80,830.114,26.1784751,186.8156362
4115600,4,4151,COLUMBIA RIVER,INTERNATIONAL BOUNDARY (USA),US,48.92,-117.78,154623,396,,,,,1965,1984,20,5,1965,1984,20,2878.039,90.7618379,586.9879507
4122700,4,4221,KANSAS RIVER,"DESOTO, KANS.",US,38.9833,-94.9647,154768,229.78,1917,2021,105,0,1973,1984,12,0,1917,2021,105,209.394,6.603449184,42.66676047
4208871,4,4081,ATHABASCA RIVER,EMBARRAS AIRPORT,CA,58.2,-111.39,155000,-999,1971,2020,50,67.61836521,1971,1984,14,30.24691358,1971,2020,50,764.207,24.10003195,155.4840771
4120950,4,4201,YELLOWSTONE RIVER,"NEAR SIDNEY, MT",US,47.6784,-104.1566,178925,573.42,1910,2021,112,1.810346963,1965,1984,20,0,1910,2021,112,355.519,11.21164718,62.66115514
2319200,2,2191,URAL,KUSHUM,KZ,50.85,51.28,190000,16,1936,1988,53,0.206622243,1915,1984,70,4.404761905,1915,1988,74,290.055,9.14717448,48.14302358
4125500,4,4251,ARKANSAS RIVER,"TULSA, OK",US,36.1406,-96.0064,193252.9,187.52,1925,2021,97,0,1965,1984,20,5.833333333,1925,2021,97,219.906,6.934955616,35.88538964
2316200,2,2161,SYR DARYA,TYUMEN-ARYK,KZ,44.05,67.05,219000,156,1936,1986,51,7.650566808,1930,1984,55,7.424242424,1930,1986,57,500.217,15.77484331,72.031248
4122600,4,4221,PLATTE RIVER,"LOUISVILLE, NEBR.",US,41.0153,-96.1581,221108.3,306.96,1953,2021,69,0,1973,1984,12,0,1953,2021,69,213.829,6.743311344,30.49777572
4119650,4,4191,MISSISSIPPI RIVER,"CLINTON, IA",US,41.7806,-90.2521,221704,171.51,1873,2021,149,0.116535025,1965,1984,20,5,1873,2021,149,1435.496,45.26980186,204.1902801
4123300,4,4231,OHIO RIVER,"LOUISVILLE, KY.",US,38.2803,-85.7991,236130,113.75,1928,2020,93,0.00592698,1965,1984,20,0,1928,2020,93,3422.633,107.9361543,457.104791
4120900,4,4201,MISSOURI RIVER,"NEAR CULBERTSON, MT",US,48.125,-104.4727,237132.6,574.06,1941,2021,81,7.805611565,1965,1984,20,5,1941,2021,81,285.774,9.012168864,38.00476554
4152450,4,4521,"COLORADO, RIO","LEES FERRY, ARIZ.",US,36.8647,-111.5882,289562,946.76,1921,2021,101,0,1911,1984,74,1.013513514,1911,2021,111,413.705,13.04660088,45.05632949
3651807,3,3511,"SAO FRANCISCO, RIO",MORPARA,BR,-11.55833,-43.2825,345000,399,1945,2020,76,18.63953062,1945,1984,40,7.659574468,1945,2020,76,2540.396,80.11392826,232.2142848
2911307,2,2111,TOBOL,LIPOVKA,RU,57.82,67.4,359000,-999,,,,,1893,1984,92,6.324472961,1893,1984,92,853.651,26.92073794,74.98812796
6978250,6,6781,DON,RAZDORSKAYA,RU,47.540833,40.647222,378000,58,1952,2010,59,3.39675174,1881,1984,104,3.453815261,1881,2010,130,681.961,21.5063221,56.895032
1531700,1,1311,VOLTA,SENCHI(HALCROW),GH,6.2,0.1,394100,5,,,,,1936,1984,49,3.242320819,1936,1984,49,1091.454,34.42009334,87.33847588
4125800,4,4251,ARKANSAS RIVER,"LITTLE ROCK, ARK.",US,34.7501,-92.2738,409453,68.16,1927,1970,44,0,1927,1984,58,2.183406114,1927,1984,58,1125.417,35.49115051,86.67942477
4119800,4,4191,MISSISSIPPI RIVER,"ALTON, ILL.",US,38.885,-90.1809,444185,-999,1933,1987,55,3.04933186,1927,1984,58,5.531295488,1927,1987,61,2999.722,94.59923299,212.972597
6680800,6,6801,DNIEPER,DNEPR POWER PLANT,UA,47.92,35.15,463000,44,1955,1984,30,0.100383282,1952,1984,33,0,1952,1984,33,1513.839,47.7404267,103.1110728
3667060,3,3671,"PARAGUAY, RIO",PORTO MURTINHO (FB/DNOS),BR,-21.7003,-57.8911,474500,70.75,1939,2020,82,1.854844139,1965,1984,20,0.431034483,1939,2020,82,2336.308,73.67780909,155.274624
4123050,4,4231,OHIO RIVER,"METROPOLIS, ILL.",US,37.1476,-88.7409,525770,84.21,1928,2015,88,0,1928,1984,57,0,1928,2015,88,7908.76,249.4106554,474.3721691
4103450,4,4031,YUKON RIVER,"RUBY, ALAS.",US,64.7405,-155.4919,670810,45.72,1956,1978,23,0,1956,1984,29,4.424778761,1956,1984,29,4773.912,150.5500888,224.4302989
4121800,4,4211,MISSOURI RIVER,"YANKTON, S.D.",US,42.8661,-97.3939,723905,347.37,1930,1995,66,0,1930,1984,55,0,1930,1995,66,739.824,23.33108966,32.22949097
4143550,4,4431,SAINT LAWRENCE RIVER,"CORNWALL(ONT.), NEAR MASSENA, N.Y.",US,45.0062,-74.7949,773892,-999,1935,2020,86,0,1973,1984,12,0,1935,2020,86,7225.683,227.8691391,294.4456579
5204268,5,5041,MURRAY RIVER,LOCK 9 UPSTREAM (764.8 KM),AU,-34.1915,141.597,991000,39,,,,,1965,1984,20,20,1965,1984,20,257.605,8.12383128,8.197609768
4122650,4,4221,MISSOURI RIVER,"NEBRASKA CITY, NEBR.",US,40.6819,-95.8469,1072153.8,275.95,1929,2021,93,0,1965,1984,20,0,1929,2021,93,1132.231,35.70603682,33.30309216
6977100,6,6771,VOLGA,VOLGOGRAD POWER PLANT,RU,48.804722,44.585833,1360000,-999,1962,2010,49,2.039447952,1879,1984,106,17.9245283,1879,2010,132,7827.676,246.8535903,181.5099929
1362100,1,1621,NILE RIVER,EL EKHSASE,EG,29.7,31.28,2900000,20,,,,,1973,1984,12,0,1973,1984,12,1253.184,39.52041062,13.6277278
4127930,4,4271,MISSISSIPPI RIVER,"TARBERT LANDING, MS",US,31.0085,-91.6237,3250000,2,1982,1991,10,77.79129906,1965,1984,20,25,1965,1991,27,14687.49,463.1846846,142.5183645
6691550,6,6910,GOKSU NEHRI,KARAHACILI,TR,36.416667,33.833333,10044,-999,1967,1986,20,52.62247839,1967,1985,19,54.79452055,1967,1986,20,155.52,4.90447872,488.2993548
4208180,4,4081,BLACKWATER RIVER,NEAR THE MOUTH,CA,63.92,-124.06,10400,-999,1974,1985,12,55.96841616,1983,1985,3,0,1974,1985,12,202.083,6.372889488,612.7778354
2517830,2,2171,BARTANG,MURGAB,TJ,38.17,73.97,10500,3576,,,,,1933,1985,53,19.96855346,1933,1985,53,16.421,0.517852656,49.31930057
2912641,2,2121,POLUY,GLUKHARINOJE,RU,65.58,69.03,10700,-999,,,,,1977,1985,9,7.843137255,1977,1985,9,98.674,3.111783264,290.8208658
5231700,5,5311,"KINABATANGAN, SUNGAI",BALAT SABAH,MY,5.3,117.59,10800,23,1981,2010,30,14.91916859,1981,1985,5,14.81481481,1981,2010,30,450.149,14.19589886,1314.43508
2816550,2,2161,CHIRCHIQ,HODJIKENT,UZ,41.7,70,10900,730,,,,,1935,1985,51,5.718954248,1935,1985,51,218.402,6.887525472,631.8830708
1931905,1,1311,PENDJARI,ARLY,BF,11.43,1.57,10960,-999,,,,,1978,1985,8,36.95652174,1978,1985,8,6.362,0.200632032,18.30584234
2549350,2,2491,KALI,KOTAGAON SHRINGE,NP,27.75,84.35,11400,198,,,,,1964,1985,22,4.166666667,1964,1985,22,473.512,14.93267443,1309.883722
6688300,6,6882,YENICE IRMAGI,DERECIKOEREN (DERECIKVIRAN),TR,40.3,30.2,13300,-999,1975,1986,12,36.36137382,1975,1985,11,39.02439024,1975,1986,12,107.88,3.40210368,255.7972692
3662300,3,3621,"ANHANDUI, RIO",DELFINO COSTA,BR,-21.6144,-53.0511,13590,323,1976,2020,45,2.823152315,1976,1985,10,6.25,1976,2020,45,170.903,5.389597008,396.5855046
2517700,2,2171,GINT,KHOROG,TJ,37.53,71.52,13700,2070,,,,,1940,1985,46,0,1940,1985,46,104.365,3.29125464,240.237565
3650205,3,3503,"GURUPI, RIO",FAZENDA RURAL ZEBU,BR,-3.3411,-46.8769,14240,-999,1980,2019,40,16.05042609,1981,1985,5,9.259259259,1980,2019,40,120.352,3.795420672,266.5323506
6695250,6,6951,EUPHRATES RIVER,BAGISTAS,TR,39.45,38.483333,15562,-999,1975,1986,12,36.36137382,1975,1985,11,39.02439024,1975,1986,12,166.3,5.2444368,337.0027503
3652050,3,3529,"VASA BARRIS, RIO",FAZENDA BELEM,BR,-10.94306,-37.34694,15740,19,1944,2020,77,0.893567759,1971,1985,15,2.298850575,1944,2020,77,12.741,0.401800176,25.52733011
6692100,6,6921,ORONTES RIVER,DEMIRKOEPRUE,TR,36.283333,36.3,16170,-999,1975,1986,12,36.43603783,1975,1985,11,39.02439024,1975,1986,12,39.394,1.242329184,76.82926308
2517820,2,2171,BARTANG,BARCHADIV,TJ,38.3,72.48,16700,2800,,,,,1940,1985,46,7.789855072,1940,1985,46,45.29,1.42826544,85.52487665
1931710,1,1311,WHITE VOLTA,BISSIGA,BF,12.75,-1.15,16965,-999,,,,,1976,1985,10,5.833333333,1976,1985,10,4.41,0.13907376,8.197687003
2550450,2,2501,SUNKOSHI NADI,KAMPUGHAT,NP,26.87,86.82,17600,200,,,,,1966,1985,20,0,1966,1985,20,767.092,24.19101331,1374.489393
6975500,6,6751,UNZHA,MAKARYEV,RU,57.879722,43.806944,18500,86,,,,,1896,1985,90,0,1896,1985,90,159.8,5.0394528,272.4028541
6687900,6,6871,CH'OROKHI,KARSIKOEY,TR,41.455,41.714722,19654,-999,1975,1986,12,36.36137382,1975,1985,11,39.02439024,1975,1986,12,205.818,6.490676448,330.2470972
6975080,6,6751,VOLGA,STARITSA,RU,56.505,34.934167,21100,137,,,,,1891,1985,95,0.438596491,1891,1985,95,153.646,4.845380256,229.6388747
2517810,2,2171,BARTANG,NUSUR,TJ,38.3,72.4,21400,2500,,,,,1969,1985,17,0,1969,1985,17,81.921,2.583460656,120.7224606
3651680,3,3511,"PRETO, RIO",FAZENDA PORTO LIMPO,BR,-11.23556,-43.94944,22100,414,1977,2010,34,8.373420302,1977,1985,9,0,1977,2010,34,103.632,3.268138752,147.8795815
1931445,1,1311,BLACK VOLTA,TENADO,BF,12.17,-2.82,23700,-999,,,,,1976,1985,10,0,1976,1985,10,18.479,0.582753744,24.58876557
6695400,6,6951,MURAT NEHRI,PALU,TR,38.691667,39.928889,25447,-999,1975,1986,12,36.36137382,1975,1985,11,39.02439024,1975,1986,12,272.575,8.5959252,337.7971942
1931770,1,1311,WHITE VOLTA,NIAOGHO,BF,11.77,-0.75,30200,-999,,,,,1964,1985,22,18.32061069,1964,1985,22,22.318,0.703820448,23.30531285
1537180,1,1371,LOGONE,MOUNDOU,TD,8.53,16.07,33970,391,1983,1985,3,9.967845659,1935,1985,51,48.01324503,1935,1985,51,255.605,8.06075928,237.2905293
6688650,6,6880,YESILIRMAK,CARSAMBA,TR,41.198889,36.721944,35958,-999,1975,1986,12,27.25236436,1975,1985,11,29.26829268,1975,1986,12,186.563,5.883450768,163.6200781
3635610,3,3351,"ARIPUANA, RIO",BOM DESTINO,BR,-8.3747,-59.7717,40100,-999,1982,1989,8,9.575971731,1982,1985,4,0,1982,1989,8,1052.146,33.18047626,827.4432982
4103601,4,4031,TANANA RIVER,NEAR HARDING LAKE AK,US,64.4,-146.94,44651.6,-999,,,,,1969,1985,17,78.125,1969,1985,17,268.598,8.470506528,189.7021949
2902800,2,2021,KAMCHATKA,KLUCHI (KLYUCHI),RU,56.3,160.85,45600,12,,,,,1931,1985,55,0.757575758,1931,1985,55,780.49,24.61353264,539.7704526
3651678,3,3511,"GRANDE, RIO",BOQUEIRAO,BR,-11.35528,-43.84556,46300,401,1933,2020,88,0.450563993,1933,1985,53,6.4,1933,2020,88,263.827,8.320048272,179.6986668
6213600,6,6131,TAGUS RIVER,ALCANTARA,ES,39.76458,-6.8019,46487,121,1914,1931,18,4.964314036,1915,1985,71,8.844339623,1914,1985,72,139.845,4.41015192,94.86849915
6983350,6,6831,KUBAN',TIKHOVSKY,RU,45.191111,38.229167,48100,5,1936,2002,67,15.0580255,1911,1985,75,25.53191489,1911,2002,92,369.252,11.64473107,242.0942011
6976200,6,6761,VYATKA,KIROV,RU,58.596944,49.658333,48300,103.2,,,,,1878,1985,108,1.774691358,1878,1985,108,377.522,11.90553379,246.4913829
6975140,6,6751,OKA,KALUGA,RU,54.535833,36.270556,54900,117,,,,,1881,1985,105,0,1881,1985,105,291.282,9.185869152,167.320021
2423500,2,2231,"KARUN, RUDKHANEH-YE",AHVAZ,IR,31.333333,48.683333,60737,10,1950,2016,67,13.16684643,1894,1985,92,20.63636364,1894,2016,123,489.707,15.44339995,254.2667559
3660105,3,3601,"GRANDE, RIO",PORTO FELICIO (JUS. US. JAGUARA),BR,-19.96667,-47.5,63500,-999,,,,,1977,1985,9,40,1977,1985,9,1139.219,35.92641038,565.7702423
6781800,6,6812,DNIESTER,TIGHINA (BENDERY),MD,46.830556,29.471111,66100,2,1945,1984,40,0,1881,1985,105,46.66666667,1881,1985,105,318.601,10.04740114,152.0030429
6970681,6,6705,VYCHEGDA,SYKTYVKAR,RU,61.686668,50.818333,66900,-999,,,,,1924,1985,62,0,1924,1985,62,601.877,18.98079307,283.71888
1931475,1,1311,BLACK VOLTA,NOUMBIEL,BF,9.68,-2.77,79700,214,,,,,1975,1985,11,27.2,1975,1985,11,82.27,2.59446672,32.5529074
6680600,6,6801,DESNA,KOLYCHOVKA (CHERNIGOV),UA,51.416667,31.3,81400,104,,,,,1884,1985,102,3.032786885,1884,1985,102,324.849,10.24443806,125.8530475
2416202,2,2161,SYR DARYA,KAL,KG,40.88,71.45,90000,378,,,,,1936,1985,50,0,1936,1985,50,445.07,14.03572752,155.952528
2179100,2,2791,LIAO HE,CHILING,CN,42.2,123.5,120764,-999,2004,2004,1,1.912568306,1938,1985,48,12.84722222,1938,2004,67,41.907,1.321579152,10.94348607
6976400,6,6761,BELAYA,BIRSK,RU,55.421111,55.542778,121000,70.4,,,,,1881,1985,105,0,1881,1985,105,847.338,26.72165117,220.8400923
2816203,2,2161,SYR DARYA,BEKABAD,UZ,40.22,69.27,142000,292,,,,,1936,1985,50,0,1936,1985,50,229.765,7.24586904,51.02724676
2906200,2,2061,SHILKA,SRETENSK,RU,52.25,117.72,175000,435,,,,,1896,1985,90,1.486988848,1896,1985,90,408.888,12.89469197,73.6839541
3651806,3,3511,"SAO FRANCISCO, RIO",BOM JESUS DA LAPA,BR,-13.25694,-43.43917,271000,420,1940,2020,81,0.706967213,1978,1985,8,0,1940,2020,81,2027.246,63.93122986,235.9085973
6955430,6,6551,NEVA,NOVOSARATOVKA,RU,59.837222,30.529444,281000,-999,1945,2011,67,0,1859,1985,127,1.24671916,1859,2011,153,2444.36,77.08533696,274.3250426
1537300,1,1371,CHARI,BOUSSO,TD,10.48,16.72,450000,325,1984,1985,2,13.35616438,1936,1985,50,50.85910653,1936,1985,50,845.186,26.6537857,59.23063488
3635040,3,3351,"MADEIRA, RIO",PORTO VELHO,BR,-8.7483,-63.9169,976000,42.5,1967,2020,54,1.03402608,1970,1985,16,0,1967,2020,54,18859.81,594.7629682,609.388287
2906700,2,2061,AMUR RIVER,KHABAROVSK,RU,48.43,135.05,1630000,24,1940,1987,48,0.969655487,1896,1985,90,0.92936803,1896,1987,92,8206.747,258.8079734,158.7778978
6864050,6,6642,STRUMA RIVER,MARINO POLE,BG,41.416668,23.35,10243,-999,1978,1986,9,0,1978,1986,9,0,1978,1986,9,69.841,2.202505776,215.0254589
1993480,1,1931,BUA RIVER,S53-ROADBRIDGE (65312601),MW,-12.783333,34.183333,10659,-999,1974,1991,18,27.78225157,1985,1986,2,0,1974,1991,18,45.714,1.441636704,135.2506524
1931340,1,1311,BOUGOURIBA,DIEBOUGOU,BF,10.93,-3.17,12200,240,,,,,1963,1986,24,9.473684211,1963,1986,24,24.748,0.780452928,63.97155148
3308300,3,3081,MAZARUNI RIVER,APAIKWA,GY,6.38,-60.38,14000,-999,1978,1995,18,7.575296623,1978,1986,9,11.11111111,1978,1995,18,774.607,24.42800635,1744.857597
6667300,6,6670,GEDIZ NEHRI,MANISA,TR,38.619583,27.430834,15616,-999,1975,1986,12,26.48083624,1975,1986,12,26.51515152,1975,1986,12,62.228,1.962422208,125.6674057
3649614,3,3491,"MORTES, RIO DAS",TORIQUEJE,BR,-15.2486,-53.0553,17160,339,1967,2019,53,0.660746379,1968,1986,19,3.947368421,1967,2019,53,361.502,11.40032707,664.3547245
2180750,2,2801,YILUO HE,HEISHIGUAN,CN,34.72,112.93,18600,-999,,,,,1934,1986,53,25.2782194,1934,1986,53,100.421,3.166876656,170.2621858
6865600,6,6651,MARITSA RIVER,SVILENGRAD,BG,41.766666,26.200001,20857,-999,1978,1986,9,0,1978,1986,9,0,1978,1986,9,102.777,3.241175472,155.3998884
3650750,3,3500,"PIRANHAS, RIO",JARDIM DE PIRANHAS,BR,-6.3781,-37.3525,21350,115,1962,2020,59,6.958919475,1962,1986,25,0,1962,2020,59,55.886,1.762420896,82.5489881
6667100,6,6670,KOCASU,AKCASUSURLUK,TR,40.299583,28.438334,21611,-999,1975,1986,12,27.25236436,1975,1986,12,27.27272727,1975,1986,12,150.991,4.761652176,220.3346525
6970802,6,6701,KEM',SHOMBA,RU,65.1,33.1,24700,-999,,,,,1960,1986,27,0,1960,1986,27,249.774,7.876872864,318.9017354
6665100,6,6651,MARITSA RIVER,MERIC KOEP,TR,41.192501,26.417917,27251,-999,1975,1986,12,36.36137382,1975,1986,12,36.36363636,1975,1986,12,191.851,6.050213136,222.0180227
2550200,2,2501,ARUN RIVER,TURKEGHAT,NP,27.33,87.19,28200,414,,,,,1976,1986,11,0,1976,1986,11,422.512,13.32433843,472.4942706
4105810,4,4053,SUSITNA RIVER,SUNSHINE AK,US,62.1778,-150.1772,28749,82.296,1981,2020,40,73.80015192,1981,1986,6,0,1981,2020,40,706.284,22.27337222,774.7529383
2903470,2,2031,SINYAYA,PESCHANOYE,RU,61.3,126.92,30400,-999,,,,,1944,1986,43,9.496124031,1944,1986,43,43.689,1.377776304,45.32158895
3650202,3,3503,"GURUPI, RIO",ALTO BONITO,BR,-1.8006,-46.3161,31850,-999,1972,2020,49,1.023852385,1972,1986,15,3.571428571,1972,2020,49,475.946,15.00943306,471.2537851
2186901,2,2861,BEI JIANG,SHIJIAO,CN,23.57,112.95,38363,-999,2004,2004,1,0,1954,1986,33,0,1954,2004,51,571.423,18.02039573,469.7337468
3669700,3,3691,URUGUAY RIVER,MARCELINO RAMOS,BR,-27.46111,-51.90444,41267,354,1939,1999,61,2.083988322,1939,1986,48,1.943462898,1939,1999,61,905.89,28.56814704,692.2758388
2182100,2,2821,HAN SHUI,ANKANG,CN,32.68,109.02,41400,-999,,,,,1935,1986,52,11.05769231,1935,1986,52,661.67,20.86642512,504.0199304
2180500,2,2801,JING HE,ZHANGJIASHAN,CN,34.63,108.6,43200,-999,,,,,1932,1986,55,6.727828746,1932,1986,55,61.753,1.947442608,45.07969
2106600,2,2061,SONGHUA JIANG,JILIN,CN,43.88,126.53,44100,-999,,,,,1933,1986,54,25.07788162,1933,1986,54,430.997,13.59192139,308.2068343
1931460,1,1311,BLACK VOLTA,OUESSA,BF,11.02,-2.82,50820,-999,,,,,1969,1986,18,16.66666667,1969,1986,18,43.715,1.37859624,27.12704132
3649412,3,3491,"ARAGUAIA, RIO",ARAGUAIANA,BR,-15.7381,-51.8281,50930,278,1974,2020,47,0.153094271,1974,1986,13,2.054794521,1974,2020,47,849.619,26.79358478,526.086487
1537200,1,1371,LOGONE,LAI,TD,9.4,16.3,56700,350,1983,1986,4,12.77372263,1948,1986,39,43.95604396,1948,1986,39,322.086,10.1573041,179.1411657
3649619,3,3491,"MORTES, RIO DAS",SANTO ANTONIO DO LEVERGER,BR,-12.2919,-50.9636,59163,205,1969,2020,52,0.175728207,1969,1986,18,11.11111111,1969,2020,52,874.359,27.57378542,466.0646929
2903425,2,2031,LENA,UST-KUT,RU,56.77,105.65,71400,-999,,,,,1936,1986,51,77.2875817,1936,1986,51,356.779,11.25138254,157.5823886
1537150,1,1371,LOGONE,BONGOR,TD,10.27,15.42,73700,321,1983,1986,4,5.644402634,1948,1986,39,26.04856512,1948,1986,39,190.074,5.994173664,81.33207142
1537480,1,1371,OUHAM,MANDA,TD,9.08,18.2,80000,-999,1983,1986,4,5.565693431,1983,1986,4,5.555555556,1983,1986,4,124.301,3.919956336,48.9994542
1159500,1,1591,VAAL RIVER,DE HOOP 65,ZA,-28.498889,24.603056,120982,-999,1909,2001,93,1.713553463,1909,1986,78,30.73593074,1909,2001,93,1.137,0.035856432,0.296378238
1992710,1,1921,SHIRE RIVER,MATOPE,MW,-15.39,34.92,133700,-999,1985,1986,2,0,1985,1986,2,0,1985,1986,2,670.421,21.14239666,158.1331089
1992790,1,1921,SHIRE RIVER,CHIKWAWA-MITOLE,MW,-16.03,34.81,138600,-999,1985,1986,2,0,1985,1986,2,0,1985,1986,2,789.411,24.8948653,179.6166327
1537500,1,1371,CHARI,SARH(FORT ARCHAMBAULT),TD,9.15,18.42,193000,355,1983,1986,4,1.952723535,1938,1986,49,32.24137931,1938,1986,49,67.521,2.129342256,11.03286143
2186800,2,2861,XI JIANG,WUZHOU 3,CN,23.48,111.3,329705,-999,2004,2004,1,0,1915,1986,72,36.57407407,1915,2004,90,5291.284,166.8659322,506.1067689
1537130,1,1371,CHARI,MAILAO,TD,11.58,15.28,500000,-999,1983,1986,4,14.32481752,1983,1986,4,11.11111111,1983,1986,4,94.123,2.968262928,5.936525856
2181600,2,2811,YANGTZE RIVER,YICHANG,CN,30.66,111.23,1010000,-999,,,,,1877,1986,110,0.911161731,1877,1986,110,14280.153,450.338905,445.880104
2181800,2,2811,YANGTZE RIVER,HANKOU,CN,30.58,114.28,1488036,29,,,,,1865,1986,122,1.161202186,1865,1986,122,23388.413,737.5769924,495.6714706
2911230,2,2111,AYAT,VARVARINKA,RU,52.97,62.2,10300,-999,,,,,1952,1987,36,13.72093023,1952,1987,36,4.195,0.13229352,12.84403107
2311820,2,2111,BUQTYRMA,LESNAYA PRISTAN,KZ,49.82,84.33,10700,-999,,,,,1954,1987,34,0,1954,1987,34,203.409,6.414706224,599.5052546
2910150,2,2101,PIM,PIM,RU,61.63,72.15,11800,-999,,,,,1956,1987,32,13.80208333,1956,1987,32,86.348,2.723070528,230.7686888
3649459,3,3491,"CAIAPO, RIO",PERES,BR,-15.8897,-51.8528,12084,-999,1971,2019,49,8.086482806,1971,1987,17,4.663212435,1971,2019,49,202.883,6.398118288,529.4702324
2311485,2,2111,SHIDERTI,EKIBASTUZSKY,KZ,52,74.9,12100,-999,,,,,1936,1987,52,54.58937198,1936,1987,52,2.244,0.070766784,5.848494545
3469150,3,3691,"YI, RIO",PASO DEL BOTE,UY,-33.22,-56.9,12668,-999,1978,1987,10,29.65726921,1978,1987,10,28.57142857,1978,1987,10,329.423,10.38868373,820.0729182
2311310,2,2111,TOBOL,GRISHENKA,KZ,52.38,61.7,13400,-999,,,,,1937,1987,51,19.14191419,1937,1987,51,8.007,0.252508752,18.84393672
2997110,2,2971,TROM' 'YEGAN,ERMAKOVO,RU,64.8,74.05,13500,-999,,,,,1955,1987,33,3.282828283,1955,1987,33,113.541,3.580628976,265.231776
2311510,2,2111,SHAR,KARPOVKA,KZ,49.97,80.77,13680,-999,,,,,1978,1987,10,16.94915254,1978,1987,10,5.263,0.165973968,12.1326
2311480,2,2111,SILETI,IZOBILNY,KZ,52.48,73.27,14600,-999,,,,,1957,1987,31,18.9701897,1957,1987,31,5.988,0.188837568,12.93408
2908150,2,2081,IRKUT,IRKUTSK,RU,52.28,104.28,15000,-999,,,,,1927,1987,61,0,1927,1987,61,139.23,4.39075728,292.717152
4206600,4,4061,TAKU RIVER,NEAR TULSEQUAH,CA,58.64,-133.54,15500,-999,1953,1987,35,11.57495256,1953,1987,35,13.01204819,1953,1987,35,270.131,8.518851216,549.6033043
1934715,1,1341,FAGA,LIPTOUGOU,BF,12.68,-0.27,15700,-999,,,,,1973,1987,15,27.77777778,1973,1987,15,8.595,0.27105192,17.2644535
2311309,2,2111,TOBOL,NOVOIL'INOVKA,KZ,52.63,62.7,16100,-999,,,,,1965,1987,23,53.09090909,1965,1987,23,3.635,0.11463336,7.120084472
2311360,2,2111,QALQOTAN,QALAOTAN,KZ,51.95,69.45,16500,-999,,,,,1937,1987,51,59.27750411,1937,1987,51,7.608,0.239925888,14.54096291
6227500,6,6270,"JUCAR, RIO",MASIA DE POMPO,ES,39.12558,-0.64545,17821,54,1912,2017,106,21.03409885,1912,1987,76,4.429678848,1912,2017,106,37.912,1.195592832,67.0889867
6970803,6,6701,KEM',YUSHKOZERO,RU,64.78,32.116667,19800,88,,,,,1928,1987,60,3.38028169,1928,1987,60,191.044,6.024763584,304.2809891
1931725,1,1311,WHITE VOLTA,WAYEN,BF,12.38,-1.08,20880,-999,,,,,1955,1987,33,27.41116751,1955,1987,33,7.478,0.235826208,11.29435862
2186950,2,2862,DONG JIANG,BOLUO,CN,23.17,114.3,25325,7,2004,2004,1,0.546448087,1953,1987,35,0,1953,2004,52,344.996,10.87979386,429.606865
2907048,2,2071,MALETA,MALETA,RU,50.83,108.4,25700,663,,,,,1954,1987,34,18.02469136,1954,1987,34,3.334,0.105141024,4.091090428
2901901,2,2010,AMGUEMA,U MOSTA 174 KM,RU,67.42,178.4,26400,-999,,,,,1944,1987,44,10.22727273,1944,1987,44,271.121,8.550071856,323.8663582
2969087,2,2691,"MUN, NAM",SATUK,TH,15.3033,103.29,26800,-999,1979,1987,9,0,1980,1987,8,14.28571429,1979,1987,9,82.483,2.601183888,97.0591003
2910160,2,2101,AGAN,AGAN,RU,61.63,75.08,29700,-999,,,,,1960,1987,28,30.05952381,1960,1987,28,275.394,8.684825184,292.4183564
2311308,2,2111,TOBOL,SERGEJEVKA,KZ,52.95,63.2,30600,-999,,,,,1958,1987,30,21.11111111,1958,1987,30,5.218,0.164554848,5.377609412
2186900,2,2861,BEI JIANG,HENGSHI,CN,23.85,113.27,34013,27,,,,,1953,1987,35,0,1953,1987,35,1081.444,34.10441798,1002.687737
6458550,6,6581,BUG,WYSZKOW,PL,52.58833333,21.45277778,38394.5,81.405,2017,2020,4,0,1920,1987,68,0,1920,2020,101,107.72,3.39705792,88.47772259
2311307,2,2111,TOBOL,KUSTANAY,KZ,53.2,63.65,44800,-999,,,,,1936,1987,52,0.961538462,1936,1987,52,12.344,0.389280384,8.689294286
6457700,6,6571,ODER RIVER,POLECKO,PL,52.0525,14.89222222,47164.9,32.61,2017,2020,4,0,1946,1987,42,0,1946,2020,75,164.031,5.172881616,109.6765098
2911451,2,2111,OM',NIKITINO,RU,55.03,74.1,51300,-999,,,,,1974,1987,14,0.617283951,1974,1987,14,52.4,1.6524864,32.21221053
2311109,2,2111,CHERNYY IRTYSH,BURAN,KZ,48,85.22,55900,-999,1938,1987,50,0,1938,1987,50,2,1938,1987,50,297.979,9.397065744,168.1049328
2311207,2,2111,ISHIM,DERJAVINSKOJE,KZ,51.03,66.37,76000,-999,,,,,1963,1987,25,9.121621622,1963,1987,25,28.426,0.896442336,11.79529389
2311206,2,2111,ISHIM,KAMENY KAR'ER,KZ,52.02,66.28,86200,-999,1970,1987,18,13.74543143,1947,1987,41,11.61825726,1947,1987,41,26.752,0.843651072,9.787135406
2311205,2,2111,ISHIM,ZAPADNOJE,KZ,53.08,66.75,90000,-999,,,,,1974,1987,14,9.756097561,1974,1987,14,58.82,1.85494752,20.610528
2311204,2,2111,ISHIM,NOVONIKOL'SKOJE,KZ,55.02,68.72,105000,-999,,,,,1971,1987,17,22.54901961,1971,1987,17,18.285,0.57663576,5.491769143
2311203,2,2111,ISHIM,SERGEJEVKA GES,KZ,53.87,67.43,109000,-999,,,,,1971,1987,17,0,1971,1987,17,55.369,1.746116784,16.01942004
2311200,2,2111,ISHIM,PETROPAVLOVSK,KZ,54.97,69.12,118000,86,,,,,1959,1987,29,12.93103448,1959,1987,29,46.724,1.473488064,12.48718698
3649414,3,3491,"ARAGUAIA, RIO",FAZENDA TELESFORO,BR,-11.9167,-50.6667,131600,200,1969,1996,28,11.66494312,1969,1987,19,0,1969,1996,28,1500.714,47.3265167,359.6239871
1196550,1,1961,LIMPOPO RIVER,BEITBRUG U/S,ZA,-22.224444,29.986944,201000,423,1955,1992,38,25.73121066,1955,1987,33,35.90425532,1955,1992,38,61.395,1.93615272,9.632600597
2969012,2,2691,MEKONG RIVER,SOP-KOK,TH,20.2417,100.1333,201000,355,1980,1987,8,35.49982338,1980,1987,8,35.48387097,1980,1987,8,2725.45,85.9497912,427.6109015
2311104,2,2111,IRTYSH,SEMIYARSKOJE,KZ,50.88,78.32,230000,-999,1960,1987,28,0,1960,1987,28,0,1960,1987,28,872.587,27.51790363,119.6430593
2311103,2,2111,IRTYSH,PAVLODAR,KZ,52.25,76.93,240000,-999,,,,,1981,1987,7,33.33333333,1981,1987,7,750.914,23.6808239,98.6700996
2311102,2,2111,IRTYSH,BOBROVSKY,KZ,53.22,75.68,244000,-999,,,,,1980,1987,8,29.67032967,1980,1987,8,600.395,18.93405672,77.59859311
3649416,3,3491,"ARAGUAIA, RIO",CONCEICAO DO ARAGUAIA,BR,-8.2694,-49.2594,320290,141,1969,2020,52,0.058482641,1969,1987,19,0,1969,2020,52,4739.667,149.4701385,466.671262
3649418,3,3491,"ARAGUAIA, RIO",XAMBIOA,BR,-6.4097,-48.5422,364500,118,1969,2019,51,0.016132502,1969,1987,19,4.245283019,1969,2019,51,5386.047,169.8543782,465.9928071
3649419,3,3491,"ARAGUAIA, RIO",ARAGUATINS,BR,-5.6344,-48.1297,376660,98,1974,2020,47,0.437300555,1974,1987,14,9.74025974,1974,2020,47,5915.523,186.5519333,495.2793855
2106500,2,2061,SONGHUA JIANG,HAERBIN,CN,45.77,126.58,391000,120,,,,,1898,1987,90,4.444444444,1898,1987,90,1209.492,38.14253971,97.55125246
2911098,2,2111,IRTYSH,UST-ISHIM,RU,57.7,71.17,564000,-999,1936,1987,52,40.88874849,1936,1987,52,15.86538462,1936,1987,52,1168.334,36.84458102,65.32727132
6970402,6,6700,PINEGA,SEVERNYY,RU,63,46.78,10200,-999,,,,,1964,1988,25,0,1964,1988,25,101.73,3.20815728,314.5252235
3206610,3,3061,"EREBATO, RIO",EL PERRO,VE,5.9,-64.49,11610,180,1978,1988,11,3.409656546,1978,1988,11,3.03030303,1978,1988,11,877.369,27.66870878,2383.179051
3469400,3,3691,"NEGRO, RIO",PASO PEREIRA,UY,-32.42,-55.2,11773,-999,1978,1988,11,3.225,1978,1988,11,7.633587786,1978,1988,11,176.218,5.557210848,472.0301408
6343100,6,6431,INN,WASSERBURG,DE,48.059301,12.234239,11960.4,420.45,1826,2019,194,0,1827,1988,162,0,1826,2019,194,354.324,11.17396166,934.2464854
2998710,2,2982,POGYNDEN,USTE INKULIVEMA,RU,68.47,163.93,12000,94,,,,,1960,1988,29,36.04651163,1960,1988,29,74.748,2.357252928,196.437744
6970103,6,6706,ONEGA,NADPOROZJSKY POGOST,RU,61.57,39.02,12800,-999,,,,,1885,1988,104,14.85943775,1885,1988,104,112.921,3.561076656,278.2091138
6970872,6,6702,KOVDA,KUMSKAYA GES,RU,66.37,31.1,13200,-999,,,,,1963,1988,26,0,1963,1988,26,136.542,4.305988512,326.2112509
2903647,2,2031,PELEDUY,SOL'ZAVOD,RU,59.83,112.4,13600,-999,,,,,1936,1988,53,0,1936,1988,53,49.238,1.552769568,114.1742329
3469200,3,3691,"TACUAREMBO, RIO",PASO DE LA LAGUNA,UY,-32.23,-55.4,14038,-999,1978,1988,11,5.226480836,1978,1988,11,3.787878788,1978,1988,11,235.996,7.442369856,530.1588443
6232900,6,6321,MUONIONJOKI,KALLIO,SE,67.2238,23.5488,14340,-999,1911,1988,78,0,1911,1988,78,0,1911,1988,78,159.545,5.03141112,350.8654895
4208792,4,4081,LESSER SLAVE RIVER,HIGHWAY NO. 2A,CA,55.29,-114.59,14400,-999,1962,1988,27,3.156354515,1963,1988,26,1.623376623,1962,1988,27,51.285,1.61732376,112.31415
2261500,2,2611,SITTANG RIVER,TOUNGOO,MM,18.92,96.47,14660,50,1978,2015,38,18.41631241,1978,1988,11,0,1978,2015,38,307.388,9.693787968,661.2406527
1931180,1,1311,BLACK VOLTA,NWOKUY,BF,12.52,-3.55,14800,-999,,,,,1956,1988,33,0,1956,1988,33,26.224,0.827000064,55.8783827
1234180,1,1341,GOROUBI,DIONGORE AMONT,NE,12.96,2.32,15350,-999,1962,1988,27,22.86900074,1962,1988,27,22.97734628,1962,1988,27,5.708,0.180007488,11.72687218
2998735,2,2982,OLOY,UTUCHAN,RU,65.67,162.43,15700,-999,,,,,1975,1988,14,14.28571429,1975,1988,14,113.341,3.574321776,227.6638074
3635410,3,3351,"JI-PARANA, RIO",SITIO BELA VISTA,BR,-11.6525,-61.215,16100,-999,1984,2020,37,17.78290993,1985,1988,4,40.54054054,1984,2020,37,375.481,11.84116882,735.476324
2901203,2,2011,ANADYR',LAMUTSKOYE,RU,65.55,168.87,16400,-999,,,,,1978,1988,11,51.2,1978,1988,11,n.a.,n.a.,n.a.
2901210,2,2011,TANYURER,TANURER,RU,64.83,174.28,18300,-999,,,,,1976,1988,13,58.38926174,1976,1988,13,n.a.,n.a.,n.a.
2901205,2,2011,MAYN,VAEGI,RU,64.17,171.03,18600,-999,,,,,1974,1988,15,53.44827586,1974,1988,15,n.a.,n.a.,n.a.
6970520,6,6703,VASHKA,RESHCHELSKOYE,RU,64.599998,46.150002,19000,-999,,,,,1931,1988,58,2.037845706,1931,1988,58,187.507,5.913220752,311.2221448
6342500,6,6421,DANUBE RIVER,INGOLSTADT,DE,48.754,11.422,20252,360.35,1923,2019,97,0,1931,1988,58,0,1923,2019,97,310.02,9.77679072,482.7568003
6970136,6,6704,WHITE SEA-BALTIC CANAL,PALAKORGSKAYA GES,RU,64.22,34.33,23600,-999,,,,,1967,1988,22,0,1967,1988,22,226.9,7.1555184,303.1999322
1308600,1,1081,"MOULOUYA, OUED",DAR EL CAID,MA,34.24,-3.32,24422,325,,,,,1957,1988,32,1.305483029,1957,1988,32,20.19,0.63671184,26.07124068
3206630,3,3061,"CAURA, RIO",DOS AGUAS,VE,5.97,-64.43,25000,173,1978,1988,11,8.885017422,1978,1988,11,7.575757576,1978,1988,11,1935.137,61.02648043,2441.059217
6970720,6,6705,VYM',POLOVNIKI,RU,62.492916,50.806667,25100,-999,,,,,1956,1988,33,0,1956,1988,33,261.536,8.247799296,328.5975815
2903660,2,2031,TOMPO,TOPOLINYI,RU,64.08,135.97,25500,-999,,,,,1975,1988,14,31.09756098,1975,1988,14,163.88,5.16811968,202.67136
6970869,6,6702,KOVDA,KNYAZHEGUBSKOYE GES,RU,66.87,32.38,25900,-999,1957,2006,50,26.00481875,1956,1988,33,0,1956,2006,51,273.971,8.639949456,333.5887821
6970155,6,6704,WHITE SEA-BALTIC CANAL,MATKOZH,RU,64.433333,34.45,26500,-999,,,,,1956,1988,33,0,1956,1988,33,259.67,8.18895312,309.0170989
2901900,2,2010,AMGUEMA,MOUTH OF SHOUMNY BROOK,RU,67.67,-178.9,26700,34,,,,,1944,1988,45,30,1944,1988,45,271.726,8.569151136,320.9419901
2260100,2,2601,CHINDWIN RIVER,HKAMTI,MM,26,95.7,27420,-999,1978,2015,38,18.41631241,1978,1988,11,0,1978,2015,38,2051.23,64.68758928,2359.138923
2969083,2,2691,"CHI, MAE NAM",BAN KOK,TH,16.35,102.9633,28500,138,1977,1988,12,0.046587468,1980,1988,9,31.42857143,1977,1988,12,125.609,3.961205424,138.989664
6970809,6,6700,KEM',PUTKINSKAYA GES,RU,64.95,34.62,28700,-999,1972,1988,17,0,1968,1988,21,28.57142857,1968,1988,21,284.828,8.982335808,312.9733731
2998702,2,2982,ANYUY,OSTROVNOYE,RU,68.1,164.17,30000,3,1960,1997,38,4.996722267,1960,1988,29,11.0787172,1960,1997,38,174.39,5.49956304,183.318768
2911731,2,2111,DEM'YANKA,URTI LIMKOJEVSKY,RU,59.53,70.4,30600,-999,,,,,1952,1988,37,6.849315068,1952,1988,37,156.17,4.92497712,160.9469647
2998300,2,2982,YASACHNAYA,NELEMNOJE,RU,65.4,151.07,32000,-999,,,,,1972,1988,17,18.09045226,1972,1988,17,329.855,10.40230728,325.0721025
2311479,2,2111,UY,KRUTOYARSKY,KZ,54.18,63.18,32900,-999,,,,,1967,1988,22,0.778210117,1967,1988,22,13.111,0.413468496,12.56743149
6213700,6,6131,TAGUS RIVER,TALAVERA,ES,39.9571,-4.82941,33849,366,1912,2013,102,38.38746224,1912,1988,77,19.26406926,1912,2013,102,104.43,3.29330448,97.29399628
6970450,6,6705,YUG,GAVRINO,RU,60.57,46.45,34800,-999,,,,,1936,1988,53,0,1936,1988,53,291.045,9.17839512,263.7469862
3206800,3,3061,"ORINOCO, RIO",TAMA-TAMA,VE,3.12,-65.87,37870,-999,1978,1988,11,0,1978,1988,11,0,1978,1988,11,1250.03,39.42094608,1040.954478
4214940,4,4143,"FEUILLES, RIVIERE AUX",EN AVAL DE LA RIVIERE PALADEAU,CA,58.6403,-70.4206,41700,4,1955,1988,34,23.70407232,1962,1988,27,2.605863192,1955,1988,34,579.172,18.26476819,438.0040334
2178300,2,2786,YONGDING HE,GUANTING (GUANKING),CN,40.23,115.6,42500,-999,2004,2004,1,1.092896175,1925,1988,64,6.640625,1925,2004,80,5.95,0.1876392,4.41504
2178500,2,2784,LUAN HE,LUAN XIAN,CN,39.73,118.75,44100,-999,2004,2004,1,1.912568306,1930,1988,59,15.25423729,1930,2004,75,14.126,0.445477536,10.10153143
2901200,2,2011,ANADYR',NOVY YEROPOL,RU,64.83,168.75,47300,86,,,,,1958,1988,31,0,1958,1988,31,471.513,14.86963397,314.3685828
2901204,2,2011,ANADYR',BAZAKREPOST,RU,64.75,170.75,55100,-999,,,,,1975,1988,14,53.7037037,1975,1988,14,n.a.,n.a.,n.a.
2998550,2,2982,DETRIN,UST'E VAKHANI,RU,61.43,149.47,56300,-999,,,,,1938,1988,51,8.803986711,1938,1988,51,54.423,1.716283728,30.48461329
3635402,3,3351,"JI-PARANA, RIO",TABAJARA,BR,-8.9322,-62.0556,60300,68.15,1977,2020,44,5.313223606,1978,1988,11,4.761904762,1977,2020,44,1439.947,45.41016859,753.0707893
3218100,3,3181,"CASIQUIARE, RIO",SOLANO,VE,1.95,-66.95,80960,-999,1978,1988,11,1.518168243,1978,1988,11,1.515151515,1978,1988,11,2150.855,67.82936328,837.8132816
2903481,2,2031,OLEKMA,YENYUKA,RU,57.9667,121.7,97600,-999,,,,,1976,1988,13,2.027027027,1976,1988,13,899.228,28.35805421,290.5538341
3218050,3,3181,"NEGRO, RIO",SAN CARLOS DE RIO NEGRO,VE,1.93,-67.12,103760,-999,1978,1988,11,0,1978,1988,11,0,1978,1988,11,4455.287,140.5019308,1354.104962
2911865,2,2111,TOBOL,BELOZERSKOJE,RU,55.82,65.6,104000,-999,,,,,1977,1988,12,11.76470588,1977,1988,12,25.645,0.80874072,7.776353077
3617805,3,3171,"GUAPORE, RIO",PEDRAS NEGRAS,BR,-12.8514,-62.8992,110000,152,1980,2020,41,0.041365047,1981,1988,8,2.222222222,1980,2020,41,902.316,28.45543738,258.6857943
3617810,3,3171,"GUAPORE, RIO",PEDRAS NEGRAS,BR,-12.83,-62.93,116731,-999,1980,2006,27,4.268741457,1981,1988,8,2.222222222,1980,2006,27,870.001,27.43635154,235.0391202
2260500,2,2601,IRRAWADDY RIVER,SAGAING,MM,21.98,96.1,120193,74,1978,2015,38,18.41631241,1978,1988,11,0,1978,2015,38,6828.259,215.3359758,1791.584999
6340110,6,6401,ELBE RIVER,NEU DARCHAU,DE,53.232275,10.88881,131950,5.68,1874,2019,146,0,1965,1988,24,0,1874,2019,146,694.613,21.90531557,166.0122438
2901202,2,2011,ANADYR',3 KM UPSTREAM UTYOSIKI RIVER MOUTH,RU,64.49,173.38,156000,-999,,,,,1974,1988,15,54.65116279,1974,1988,15,n.a.,n.a.,n.a.
6970251,6,6705,SEVERNAYA DVINA,PODOSANYE (ZVOZ),RU,63.27,42.03,285000,6,,,,,1939,1988,50,0.167785235,1939,1988,50,2557.708,80.65987949,283.017121
6742200,6,6421,DANUBE RIVER,ORSOVA (1971:DROBATA-TURNU SEVERIN),RO,44.7,22.42,576232,44,1840,1990,151,0.001813171,1840,1988,149,0,1840,1990,151,5602.469,176.6794624,306.6116814
2180700,2,2801,YELLOW RIVER,SANMENXIA,CN,34.82,111.37,688421,280,,,,,1953,1988,36,0,1953,1988,36,1265.154,39.89789654,57.95566455
2180800,2,2801,YELLOW RIVER,HUAYUANKOU,CN,34.92,113.65,730036,92,2004,2004,1,0.547945205,1946,1988,43,4.678362573,1946,2004,59,756.234,23.84859542,32.66769779
4122900,4,4221,MISSOURI RIVER,"HERMANN, MO.",US,38.71,-91.4393,1357678,146.78,1928,2021,94,0,1897,1988,92,0.824175824,1897,2021,125,2379.789,75.0490259,55.27748546
2181900,2,2811,YANGTZE RIVER,DATONG,CN,30.77,117.62,1705383,19,2004,2004,1,0,1922,1988,67,25.44080605,1922,2004,83,25069.29,790.5851294,463.5821569
2966999,2,2661,"KHWAE YAI, MAE NAM",SRINAGARIND DAM,TH,14.4,99.14,10880,-999,,,,,1952,1989,38,0,1952,1989,38,140.681,4.436516016,407.7680162
2911830,2,2111,PYSHMA,ZOTINA,RU,57.02,63.67,11000,-999,,,,,1938,1989,52,31.56199678,1938,1989,52,21.946,0.692089056,62.91718691
2911651,2,2111,SOS'VA,MOROZKOVO,RU,59.32,60.98,11500,-999,,,,,1979,1989,11,11.45038168,1979,1989,11,109.05,3.4390008,299.0435478
3653352,3,3530,"ITAJAI, RIO",BLUMENAU,BR,-26.9181,-49.0653,11803,12,1939,2020,82,0.026959628,1939,1989,51,3.294892916,1939,2020,82,377.127,11.89307707,1007.63171
2911674,2,2111,ISET',KATAYSK,RU,56.28,62.58,12800,-999,,,,,1958,1989,32,1.5625,1958,1989,32,26.887,0.847908432,66.24284625
2964080,2,2641,"NAN, MAE NAM",SIRIKIT DAM,TH,17.77,100.55,13300,-999,,,,,1955,1989,35,0,1955,1989,35,175.662,5.539676832,416.517055
2817400,2,2171,SURXONDARYO,MANGUZAR,UZ,37.2,67.25,13500,302,,,,,1932,1989,58,11.63793103,1932,1989,58,49.122,1.549111392,114.748992
1309700,1,1091,"SBOU, OUED",AZIB SOLTANE,MA,34.28,-5.43,17250,70,,,,,1959,1989,31,0,1959,1989,31,56.658,1.786766688,103.5806776
2911955,2,2111,NITSA,IRBIT,RU,57.67,63.08,17300,-999,,,,,1892,1989,98,2.380952381,1892,1989,98,44.152,1.392377472,80.48424694
3649014,3,3491,"ALMAS, RIO DAS",COLONIA DOS AMERICANOS,BR,-14.73972,-49.06389,18282,499.98,1973,1996,24,14.24170616,1973,1989,17,0,1973,1996,24,322.583,10.17297749,556.4477348
2911680,2,2111,MIASS,KARGAPOLJE,RU,55.95,64.43,21400,68,,,,,1936,1989,54,22.22222222,1936,1989,54,16.961,0.534882096,24.99449047
2911650,2,2111,SOS'VA,SOSVA,RU,59.17,61.92,22100,58,,,,,1938,1989,52,21.15384615,1938,1989,52,123.871,3.906395856,176.7599935
2911672,2,2111,ISET',SHADRINSK,RU,56.08,63.63,23400,-999,,,,,1975,1989,15,7.01754386,1975,1989,15,33.182,1.046427552,44.71912615
6457820,6,6571,WARTA,POZNAN-MOST ROCHA,PL,52.40222222,16.94527778,25908.9,49.385,1949,2020,72,0,1949,1989,41,0,1949,2020,72,98.553,3.107967408,119.9575207
6343900,6,6431,INN,PASSAU INGLING,DE,48.561499,13.444127,26040,289.19,1920,2019,100,0.013804528,1921,1989,69,0.241545894,1920,2019,100,741.399,23.38075886,897.8786046
4773800,4,4731,"SAN JUAN, RIO",EL CASTILLO,NI,11.02,-84.42,28600,26,1985,1989,5,46.71163575,1969,1989,21,49.79253112,1969,1989,21,315.897,9.962127792,348.3261466
1812600,1,1121,FALEME RIVIERE,KIDIRA,SN,14.45,-12.22,28900,20,1979,1989,11,50.42782225,1930,1989,60,21.6407355,1930,1989,60,62.452,1.969486272,68.14831391
2911875,2,2111,TURA,TURINSK,RU,58.07,63.7,29000,-999,,,,,1936,1989,54,0,1936,1989,54,116.745,3.68167032,126.954149
2517910,2,2171,VAKHSH,KOMSOMOLABAD,TJ,38.87,69.98,29500,1258,,,,,1949,1989,41,44.91869919,1949,1989,41,606.325,19.1210652,648.1717017
3631210,3,3311,"PARU DE ESTE, RIO",FAZENDA PAQUIRA,BR,-0.4167,-53.7,30945,-999,1973,1989,17,0,1973,1989,17,0,1973,1989,17,480.697,15.15926059,489.8775438
2909314,2,2091,TUBA,BUGURTAK,RU,53.8,92.87,31800,284,,,,,1941,1989,49,0,1941,1989,49,751.829,23.70967934,745.5874008
2909360,2,2091,KAN,PODPOROG,RU,56.42,93.95,36800,-999,,,,,1938,1989,52,2.403846154,1938,1989,52,291.455,9.19132488,249.764263
1234080,1,1341,GOROUOL,ALCONGUI,NE,14.75,0.6,44900,227,1961,1988,28,20.66720096,1957,1989,33,6.666666667,1957,1989,33,9.854,0.310755744,6.921063341
2911671,2,2111,ISET',MEKHONSKOJE,RU,56.15,64.57,52300,-999,,,,,1936,1989,54,5.409582689,1936,1989,54,64.845,2.04495192,39.10041912
3638150,3,3381,"IRIRI, RIO",LARANJEIRAS,BR,-5.6967,-54.2456,60058,-999,1975,2019,45,44.99748301,1976,1989,14,5.063291139,1975,2019,45,1264.776,39.88597594,664.1242788
2911632,2,2111,TAVDA,TABORI,RU,58.52,64.53,74200,49,,,,,1965,1989,25,0.666666667,1965,1989,25,417.194,13.15662998,177.3130726
2911306,2,2111,TOBOL,ZVERINOGOLOVSKOJE,RU,54.47,64.83,83800,-999,,,,,1938,1989,52,29.67741935,1938,1989,52,27.308,0.861185088,10.27667169
2911305,2,2111,TOBOL,KURGAN,RU,55.43,65.38,98800,-999,,,,,1936,1989,54,0.308641975,1936,1989,54,41.231,1.300260816,13.16053457
1835800,1,1351,BENUE RIVER,YOLA,NG,9.25,12.5,107000,-999,,,,,1960,1989,30,0,1960,1989,30,21.957,0.692435952,6.471364037
2517950,2,2171,PANJ,NIZ. PYANDZH,TJ,37.33,68.67,113000,327,,,,,1965,1989,25,29.33333333,1965,1989,25,1025.703,32.34656981,286.2528302
2178950,2,2783,HUAI HE,BENGBU,CN,32.93,117.38,121330,25,2004,2004,1,3.105590062,1915,1989,75,27.96420582,1915,2004,90,859.861,27.1165765,223.4944078
2999100,2,2996,YANA,DZANGHKY,RU,69.77,135.23,216000,36.2,,,,,1938,1989,52,7.371794872,1938,1989,52,945.667,29.82255451,138.067382
2999111,2,2996,YANA,DJAHGKY,RU,69.77,135.23,216000,-999,,,,,1938,1989,52,2.884615385,1938,1989,52,954.885,30.11325336,139.41321
1812500,1,1121,SENEGAL FLEUVE,BAKEL,SN,14.9,-12.45,218000,11,1979,1989,11,50.67068163,1904,1989,86,18.75,1904,1989,86,310.811,9.801735696,44.96209035
2617110,2,2171,AMU DARYA,KERKI,TM,37.83,65.25,309000,241,1936,1989,54,28.95964307,1932,1989,58,30.45977011,1932,1989,58,1653.622,52.14862339,168.7657715
3206720,3,3061,"ORINOCO, RIO",PUENTE ANGOSTURA,VE,8.15,-63.6,836000,20,1923,1989,67,1.330486202,1923,1989,67,1.25,1923,1989,67,31208.473,984.1904045,1177.261249
2910561,2,2101,ALEY,GILEVO,RU,52.18,81.77,10300,-999,,,,,1978,1990,13,24.48979592,1978,1990,13,19.335,0.60974856,59.19888932
2912610,2,2121,SHCHUCH'YA,SHCHUCHYE,RU,67.27,68.67,10600,-999,,,,,1944,1990,47,58.75,1944,1990,47,116.955,3.68829288,347.9521585
2903120,2,2031,KALAKAN,KALAKAN,RU,55.15,116.77,10700,596,,,,,1953,1990,38,30.15521064,1953,1990,38,81.331,2.564854416,239.7060202
2903330,2,2031,KUTA,NOVO-ILINKA,RU,56.85,105.07,11200,305,,,,,1941,1990,50,3.209459459,1941,1990,50,61.738,1.946969568,173.8365686
2908210,2,2081,ILIM,KOCHENGA,RU,55.92,104.1,11200,-999,,,,,1968,1990,23,0,1968,1990,23,64.95,2.0482632,182.8806429
2908151,2,2081,IRKUT,TIBIL'TI,RU,51.78,103.27,11600,658,,,,,1955,1990,36,0,1955,1990,36,111.11,3.50396496,302.0659448
3637210,3,3371,"JAMANXIM, RIO",NOVO PROGRESSO,BR,-7.0094,-55.4072,12300,-999,1987,1990,4,0,1987,1990,4,0,1987,1990,4,415.693,13.10929445,1065.796297
2910130,2,2101,LYAMIN,GORZHKOVO,RU,61.7,70.67,12800,-999,,,,,1951,1990,40,6.918238994,1951,1990,40,100.415,3.16668744,247.3974563
6211100,6,6111,"MINO, RIO",ORENSE,ES,42.35769,-7.8516,12810,95,1912,1970,59,29.55046173,1914,1990,77,23.16017316,1912,1990,79,259.86,8.19494496,639.7302857
2903301,2,2031,KIRENGA,KARAM,RU,55.15,107.62,12900,-999,,,,,1966,1990,25,0.677966102,1966,1990,25,89.535,2.82357576,218.8818419
2910108,2,2101,BOL'SHOY YUGAN,TAUROVO,RU,59.5,73.25,13000,-999,,,,,1965,1990,26,8.223684211,1965,1990,26,82.109,2.589389424,199.1838018
2903110,2,2031,KALAR,SREDNE KALAR,RU,55.92,117.53,13700,738,,,,,1964,1990,27,22.25705329,1964,1990,27,179.482,5.660144352,413.1492228
2903051,2,2031,VITIM,UST-ZAZA,RU,53.22,111.68,14200,-999,,,,,1961,1990,30,21.38888889,1961,1990,30,72.927,2.299825872,161.9595685
1134310,1,1341,BANIFING,KOUORO 2,ML,12.02,-6.68,14300,-999,1975,1990,16,61.86784141,1975,1990,16,61.82795699,1975,1990,16,15.584,0.491457024,34.36762406
1653100,1,1531,RUSIZI,GATUMBA,BI,-3.3333,29.25,14300,774,,,,,1975,1990,16,0,1975,1990,16,185.373,5.845922928,408.8057992
2908200,2,2081,IYA,TULUN,RU,54.58,100.62,14500,449,,,,,1920,1990,71,11.72985782,1920,1990,71,150.923,4.759507728,328.2419123
1112200,1,1121,FALEME RIVIERE,GOURBASSY,ML,13.23,-11.38,15000,-999,1981,1990,10,71.68674699,1954,1990,37,0,1954,1990,37,57.429,1.811080944,120.7387296
1112480,1,1121,BAFING,DAKA SAYDOU,ML,12.15,-10.2,15500,-999,1981,1990,10,71.71412924,1952,1990,39,27.37068966,1952,1990,39,142.502,4.493943072,289.9318111
2903215,2,2031,TSIPA,Z. UJU,RU,55.58,114.5,15600,1046,,,,,1961,1990,30,0,1961,1990,30,105.667,3.332314512,213.6099046
4208477,4,4081,KAKISA RIVER,OUTLET OF KAKISA LAKE,CA,60.940277,-117.42167,15600,-999,1962,2018,57,41.6642463,1962,1990,29,3.216374269,1962,2018,57,41.876,1.320601536,84.65394462
6457200,6,6571,NOTEC,NOWE DREZDENKO,PL,52.85083333,15.8375,15931.5,24.208,1950,2020,71,0,1951,1990,40,0,1950,2020,71,72.454,2.284909344,143.4208545
1112340,1,1121,BAKOYE,TOUKOTO,ML,13.45,-9.88,16000,-999,1987,1990,4,50.03422313,1952,1990,39,41.59482759,1952,1990,39,16.967,0.535071312,33.441957
2908180,2,2081,BELAYA,SHANHAR,RU,52.85,103.17,16400,410,,,,,1968,1990,23,0,1968,1990,23,176.874,5.577898464,340.11576
2908302,2,2081,CHUNA,UKAR,RU,54.07,99.25,17200,358,,,,,1936,1990,55,0.151515152,1936,1990,55,177.909,5.610538224,326.1940828
2903422,2,2031,LENA,KACHUG,RU,53.97,105.88,17400,506,,,,,1936,1990,55,0.303030303,1936,1990,55,90.784,2.862964224,164.5381738
2903052,2,2031,VITIM,ROMANOVKA,RU,53.2,112.77,18200,876,,,,,1944,1990,47,20.03546099,1944,1990,47,105.06,3.31317216,182.0424264
2903654,2,2031,MAMA,LUGOVSKY,RU,58.07,112.88,18400,-999,,,,,1970,1990,21,1.19047619,1970,1990,21,354.579,11.18200334,607.717573
2903662,2,2031,CHUYA,CHUYA,RU,57.27,111.75,18400,179,,,,,1961,1990,30,40.55555556,1961,1990,30,172.259,5.432359824,295.236947
4208470,4,4081,BUFFALO RIVER,HIGHWAY NO. 5,CA,60.712223,-114.90305,18500,-999,1969,1990,22,0,1969,1990,22,0,1969,1990,22,49.492,1.560779712,84.36647092
2908192,2,2081,OKA,SARAM,RU,53.35,102.2,18700,-999,,,,,1975,1990,16,0,1975,1990,16,222.268,7.009443648,374.8365587
2517920,2,2171,VAKHSH,GARM,TJ,39,70.33,20000,1316,1936,1986,51,1.959286143,1933,1990,58,8.477011494,1933,1990,58,323.63,10.20599568,510.299784
6421500,6,6211,MAAS,BORGHAREN,NL,50.87,5.72,21301,40,1911,2019,109,2.752938812,1911,1990,80,0,1911,2019,109,239.793,7.562112048,355.0120674
1112500,1,1121,BAFING,BAFING MAKANA,ML,12.33,-10.16,21700,-999,1981,1990,10,70.18072289,1981,1990,10,70,1981,1990,10,166.238,5.242481568,241.5890124
4103750,4,4031,TANANA RIVER,"NEAR TANACROSS, ALAS.",US,63.388,-143.7486,22144.5,454.024,1953,1990,38,0.931586608,1953,1990,38,0.663716814,1953,1990,38,228.894,7.218401184,325.9681268
2908012,2,2081,BIRYUSA,BIRYUSINSK,RU,55.97,97.78,24700,-999,,,,,1936,1990,55,0.151515152,1936,1990,55,264.939,8.355116304,338.263818
1112110,1,1121,KOLINBINE,KABATE,ML,14.31,-11.13,25000,-999,1981,1990,10,70.8652793,1981,1990,10,70.83333333,1981,1990,10,5.757,0.181552752,7.26211008
3275050,3,3751,"JACHAL, RIO",PACHIMOCO,AR,-30.22,-68.83,25500,1160,,,,,1921,1990,70,11.5942029,1921,1990,70,10.113,0.318923568,12.50680659
3275900,3,3753,"LIMAY, RIO",PASO LIMAY,AR,-40.53,-70.43,26400,538,,,,,1903,1990,88,0,1903,1990,88,738.821,23.29945906,882.5552673
2908304,2,2081,CHUNA,OKTYABR'SKIY,RU,56.28,99.58,31700,-999,,,,,1967,1990,24,4.225352113,1967,1990,24,220.141,6.942366576,219.0021002
2908011,2,2081,BIRYUSA,SHITKINO,RU,56.37,98.37,31800,212,,,,,1944,1990,47,0.177304965,1944,1990,47,290.542,9.162532512,288.1299532
1134200,1,1341,BAOULE,DIOILA,ML,12.52,-6.8,32500,-999,1953,1992,40,31.50334922,1953,1990,38,8.203991131,1953,1992,40,164.773,5.196281328,159.8855793
1112350,1,1121,BAFING,DIBIA,ML,13.14,-10.48,33000,-999,1981,1990,10,81.68127054,1951,1990,40,20.37815126,1951,1990,40,186.401,5.878341936,178.1315738
1931790,1,1311,WHITE VOLTA,BAGRE,BF,11.35,-0.53,33120,210,,,,,1974,1990,17,6.37254902,1974,1990,17,36.146,1.139900256,34.41727826
2908190,2,2081,OKA,UST'-KADA,RU,54.5,102.02,33400,407,,,,,1962,1990,29,1.173020528,1962,1990,29,271.52,8.56265472,256.3669078
1134040,1,1341,SANKARANI,GOUALA,ML,11.97,-8.23,35300,-999,1954,1990,37,54.11519571,1954,1990,37,38.0952381,1954,1990,37,314.791,9.927248976,281.2251835
3637205,3,3371,"JAMANXIM, RIO",JARDIM DO OURO (MORAES ALMEIDA),BR,-6.2575,-56.7725,37400,-999,,,,,1987,1990,4,0,1987,1990,4,1384.953,43.67587781,1167.804219
2903424,2,2031,LENA,GRUZNOVKA,RU,55.13,105.23,41700,-999,,,,,1912,1990,79,10.60445387,1912,1990,79,190.295,6.00114312,143.912305
6983355,6,6831,KUBAN',KRASNODAR,RU,45.032778,38.976944,45900,15.7,1980,1990,11,0.049776008,1911,1990,80,3.235908142,1911,1990,80,335.322,10.57471459,230.3859388
2903300,2,2031,KIRENGA,SHOROKHOVO,RU,57.63,108.12,46500,254,,,,,1927,1990,64,0,1927,1990,64,650.905,20.52694008,441.4395716
2903053,2,2031,VITIM,HULUGLI,RU,54.03,115,48500,-999,,,,,1961,1990,30,19.04761905,1961,1990,30,212.175,6.6911508,137.9618722
3650470,3,3508,"POTI, RIO",FAZENDA CANTINHO II,BR,-5.2025,-42.6967,50000,80,1963,2019,57,23.11516156,1963,1990,28,0.303951368,1963,2019,57,110.013,3.469369968,69.38739936
4105700,4,4052,COPPER RIVER,"NEAR CHITINA, ALAS.",US,61.4651,-144.4579,53354,121.92,1950,1990,41,10.97129642,1950,1990,41,10.97308489,1950,1990,41,1073.614,33.8574911,634.5820577
6457100,6,6571,ODER RIVER,SLUBICE,PL,52.34805556,14.55555556,53511.2,17.43,2017,2020,4,0,1951,1990,40,0,1951,2020,70,184.284,5.811580224,108.6049318
1112330,1,1121,BAOULE,SIRAMAKANA,ML,13.34,-9.53,58000,-999,1981,1990,10,73.35706462,1972,1990,19,60.96491228,1972,1990,19,8.805,0.27767448,4.787491034
2416850,2,2161,NORIN,UCH-KURGAN,KG,41.17,72.1,58400,498,1938,1983,46,0.726147253,1933,1990,58,0.574712644,1933,1990,58,366.611,11.5614445,197.96994
6116200,6,6161,"GUADIANA, RIO",PULO DO LOBO,PT,37.82,-7.63,60883,30,1947,1990,44,0.375652617,1946,1990,45,0.189393939,1946,1990,45,149.786,4.723651296,77.58571844
2903054,2,2031,VITIM,KALAKAN,RU,55.12,116.77,66300,594,,,,,1953,1990,38,20.84257206,1953,1990,38,287.043,9.052188048,136.5337564
3308600,3,3081,ESSEQUIBO RIVER,PLANTAIN ISLAND,GY,5.85,-58.58,66600,18,1966,1995,30,40.88710413,1965,1990,26,11.53846154,1965,1995,31,2137.262,67.40069443,1012.022439
6113050,6,6131,TAGUS RIVER,ALMOUROL,PT,39.47,-8.37,67490,200,1982,1990,9,12.49144422,1973,1990,18,5.882352941,1973,1990,18,342.692,10.80713491,160.1294253
1112320,1,1121,BAKOYE,OUALIA,ML,13.36,-9.23,84400,-999,1981,1990,10,70.01642935,1951,1990,40,29.20168067,1951,1990,40,31.979,1.008489744,11.94893062
6458500,6,6581,VISTULA,WARSAW (WARSZAWA),PL,52.2475,21.0325,84945.1,76.076,1949,2013,65,70.31570842,1921,1990,70,11.45584726,1921,2013,93,567.742,17.90431171,210.7750972
6976450,6,6761,BELAYA,UFA,RU,54.542778,55.992222,100000,81,1945,1995,51,0,1878,1990,113,0,1878,1995,118,771.052,24.31589587,243.1589587
1237500,1,1371,KOMADOUGOU YOBE,BAGARA DIFFA,NE,13.28,12.6,115000,298,1976,1980,5,0.067024129,1967,1990,24,0,1967,1990,24,15.28,0.48187008,4.190174609
1112300,1,1121,SENEGAL FLEUVE,GALOUGO,ML,13.83,-11.13,127000,69,1981,1990,10,70.01642935,1905,1990,86,35.01945525,1905,1990,86,189.209,5.966895024,46.98342539
6142200,6,6421,DANUBE RIVER,BRATISLAVA,SK,48.13957,17.10924,131331,128,1900,2017,118,0,1900,1990,91,0,1900,2017,118,2045.524,64.50764486,491.1836875
2903426,2,2031,LENA,ZMEINOVO,RU,57.78,108.32,140000,245,1937,1988,52,0.363291739,1936,1990,55,1.818181818,1936,1990,55,1136.748,35.84848493,256.0606066
2903056,2,2031,VITIM,SPITSYUNO,RU,56.22,115.73,151000,-999,,,,,1976,1990,15,0,1976,1990,15,897.083,28.29040949,187.3537052
1112100,1,1121,SENEGAL FLEUVE,KAYES,ML,14.45,-11.28,157400,20,1981,1990,10,70.01642935,1951,1990,40,0,1951,1990,40,200.748,6.330788928,40.22102241
2903050,2,2031,VITIM,BODAIBO,RU,57.82,114.17,186000,235,1925,1988,64,14.80150582,1912,1990,79,11.66489926,1912,1990,79,1584.092,49.95592531,268.5802436
3103300,3,3031,"MAGDALENA, RIO",CALAMAR,CO,10.27,-74.92,257438,1170,,,,,1971,1990,20,5,1971,1990,20,7332.016,231.2224566,898.1675455
2908102,2,2081,ANGARA,BRATSKAYA,RU,56.28,101.73,736000,294,1962,1988,27,0,1962,1990,29,0,1962,1990,29,2775.031,87.51337762,118.9040457
1234250,1,1341,"NIGER, RIVER",GAYA,NE,11.88,3.4,1000000,-999,,,,,1952,1990,39,19.60784314,1952,1990,39,1100.748,34.71318893,34.71318893
2911096,2,2111,IRTYSH,DEM'YANSKOJE,RU,59.6,69.28,1120000,-999,,,,,1967,1990,24,42.25352113,1967,1990,24,2135.62,67.34891232,60.13295743
2906900,2,2061,AMUR RIVER,KOMSOMOLSK,RU,50.63,137.12,1730000,13,1940,2006,67,14.6126185,1932,1990,59,0.994318182,1932,2006,75,9870.963,311.2906892,179.9368145
2969082,2,2691,"CHI, MAE NAM",BAN CHOT,TH,16.1,102.5767,10200,151.75,1975,1993,19,0,1980,1991,12,31.91489362,1975,1993,19,48.806,1.539146016,150.8966682
2469300,2,2691,"KONG, TONLE",ATTOPEU (MUONG MAY),LA,14.8067,106.8433,10500,-999,1989,1992,4,12.45722108,1989,1991,3,0,1989,1992,4,438.031,13.81374562,1315.594821
5141200,5,5412,"SOLO, BENGAWAN",BOJONEGORO,ID,-7.1,111.83,12804,-999,,,,,1983,1991,9,0,1983,1991,9,361.19,11.39048784,889.6038613
3649211,3,3491,"SANTA TERESA, RIO",JACINTO,BR,-11.9825,-48.6575,13811,237,1971,2020,50,6.28346013,1971,1991,21,12.5,1971,2020,50,153.545,4.84219512,350.6042372
6212510,6,6121,"ESLA, RIO",BRETO,ES,41.87413,-5.76421,14263,691,1930,2011,82,17.72389309,1930,1991,62,20.69892473,1930,2011,82,135.92,4.28637312,300.5239515
2469058,2,2691,"NGUM, NAM",BAN-PAK KANHOUNG,LA,18.4183,102.55,14300,159.02,1963,1993,31,45.20003533,1989,1991,3,0,1963,1993,31,665.485,20.98673496,1467.603843
2903071,2,2031,ALLAKH-YUN',SELHOZ,RU,60.28,137.5,15000,-999,,,,,1975,1991,17,28.64321608,1975,1991,17,102.18,3.22234848,214.823232
2910161,2,2101,AGAN,VAR-AGAN,RU,62,76.88,15500,-999,,,,,1954,1991,38,32.01754386,1954,1991,38,121.6,3.8347776,247.4050065
3844100,3,3442,"ESMERALDAS, RIO",D.J.SADE,EC,0.523333,-79.415278,18800,50,1965,2005,41,26.96734475,1982,1991,10,55.46218487,1965,2005,41,906.109,28.57505342,1519.94965
2469120,2,2691,"BANGHIANG, XE",BAN KENG DONE,LA,16.185,105.3167,19400,121.29,1960,1993,34,31.70238577,1989,1991,3,13.88888889,1960,1993,34,495.894,15.63851318,806.108927
2469060,2,2691,"OU, NAM",MUONG NGOY,LA,20.7017,102.7583,19700,23.654,1987,1993,7,10.10815308,1987,1991,5,0,1987,1993,7,555.758,17.52638429,889.6641771
2903488,2,2031,NYUKZHA,LOPCHA,RU,55.77,122.67,20500,494,,,,,1963,1991,29,76.23188406,1963,1991,29,149.931,4.728224016,230.645074
2909750,2,2091,DZHIDA,DZHIDA,RU,50.63,106.12,23300,575,1980,1991,12,0,1980,1991,12,0,1980,1991,12,35.823,1.129714128,48.48558489
6970900,6,6707,IZHMA,IZHMA,RU,65.010834,53.922085,28700,-999,,,,,1981,1991,11,1.62601626,1981,1991,11,315.558,9.951437088,346.7399682
3650355,3,3504,"ITAPECURU, RIO",CAXIAS,BR,-4.8653,-43.3583,32700,39,1963,2018,56,1.978541195,1963,1991,29,3.779069767,1963,2018,56,69.077,2.178412272,66.61811229
3635408,3,3351,"JI-PARANA, RIO",JIPARANA (RONDONIA),BR,-10.8736,-61.9356,32800,129.6,1977,2020,44,3.698604418,1978,1991,14,17.28395062,1977,2020,44,731.211,23.0594701,703.0326249
3662650,3,3621,"IVAI, RIO",NOVO PORTO TAQUARA,BR,-23.19806,-53.30417,34432,240,1974,2019,46,0.3571216,1974,1991,18,4.784688995,1974,2019,46,725.659,22.88438222,664.6254131
1931370,1,1311,BLACK VOLTA,BOROMO,BF,11.78,-2.92,37140,238,,,,,1955,1991,37,0.696055684,1955,1991,37,32.979,1.040025744,28.00284717
