"grdc_no","wmo_reg","sub_reg","river","station","country","lat","lon","area","altitude","d_start","d_end","d_yrs","d_miss","m_start","m_end","m_yrs","m_miss","t_start","t_end","t_yrs","lta_discharge","r_volume_yr","r_height_yr","miss"
1104150,1,1041,"CHELIF, OUED","SIDI BELATAR","DZ",36.02,0.27,43750,2,1978,2001,24,58.35019641,1976,1977,2,0,1976,2001,26,"15.027","0.473891472","10.83180507",77.44
1104500,1,1040,"ISSER, OUED","LAKHDARIA","DZ",36.62,3.58,4149,90,NA,NA,NA,NA,1976,1979,4,0,1976,1979,4,"6.387","0.201420432","48.54674187",98.37
1104530,1,1040,"SEBAOU, OUED","BAGHLIA","DZ",36.8,3.87,2501,20,NA,NA,NA,NA,1976,1979,4,0,1976,1979,4,"17.581","0.554434416","221.6850924",97.56
1104600,1,1040,"BOU SELLAM, OUED","SIDI YAHIA","DZ",36.42,4.6,4309,220,1988,1997,10,0,1976,1978,3,0,1976,1997,22,"3.005","0.09476568","21.99249942",76.83
1107700,1,1071,"TAFNA, OUED","PIERRE DU CHAT","DZ",35.15,-1.45,7245,60,1979,2001,23,1.854156297,1976,1979,4,16.66666667,1976,2001,26,"2.567","0.080952912","11.17362484",47.36
1112100,1,1121,"SENEGAL FLEUVE","KAYES","ML",14.45,-11.28,157400,20,1981,1990,10,70.01642935,1951,1990,40,0,1951,1990,40,"200.748","6.330788928","40.22102241",70.73
1112110,1,1121,"KOLINBINE","KABATE","ML",14.31,-11.13,25000,-999,1981,1990,10,70.8652793,1981,1990,10,70.83333333,1981,1990,10,"5.757","0.181552752","7.26211008",92.89
1112200,1,1121,"FALEME RIVIERE","GOURBASSY","ML",13.23,-11.38,15000,-999,1981,1990,10,71.68674699,1954,1990,37,0,1954,1990,37,"57.429","1.811080944","120.7387296",70.73
1112300,1,1121,"SENEGAL FLEUVE","GALOUGO","ML",13.83,-11.13,127000,69,1981,1990,10,70.01642935,1905,1990,86,35.01945525,1905,1990,86,"189.209","5.966895024","46.98342539",70.73
1112320,1,1121,"BAKOYE","OUALIA","ML",13.36,-9.23,84400,-999,1981,1990,10,70.01642935,1951,1990,40,29.20168067,1951,1990,40,"31.979","1.008489744","11.94893062",92.68
1112330,1,1121,"BAOULE","SIRAMAKANA","ML",13.34,-9.53,58000,-999,1981,1990,10,73.35706462,1972,1990,19,60.96491228,1972,1990,19,"8.805","0.27767448","4.787491034",93.5
1112340,1,1121,"BAKOYE","TOUKOTO","ML",13.45,-9.88,16000,-999,1987,1990,4,50.03422313,1952,1990,39,41.59482759,1952,1990,39,"16.967","0.535071312","33.441957",95.12
1112350,1,1121,"BAFING","DIBIA","ML",13.14,-10.48,33000,-999,1981,1990,10,81.68127054,1951,1990,40,20.37815126,1951,1990,40,"186.401","5.878341936","178.1315738",78.46
1112400,1,1121,"FALEME RIVIERE","FADOUGOU","ML",12.31,-11.23,9300,-999,1981,1990,10,70.01642935,1952,1990,39,6.047516199,1952,1990,39,"43.779","1.380614544","148.4531768",71.75
1112480,1,1121,"BAFING","DAKA SAYDOU","ML",12.15,-10.2,15500,-999,1981,1990,10,71.71412924,1952,1990,39,27.37068966,1952,1990,39,"142.502","4.493943072","289.9318111",93.09
1112500,1,1121,"BAFING","BAFING MAKANA","ML",12.33,-10.16,21700,-999,1981,1990,10,70.18072289,1981,1990,10,70,1981,1990,10,"166.238","5.242481568","241.5890124",92.68
1134020,1,1341,"SANKARANI","GUELELINKORO","ML",11.15,-8.55,23300,-999,1971,1979,9,2.295918367,1971,1979,9,1.941747573,1971,1979,9,"256.975","8.1039636","347.8095966",97.76
1134030,1,1341,"NIGER, RIVER","BANANKORO","ML",11.6833,-8.6667,71750,329,1967,2001,35,20.68320455,1967,1992,26,48.35526316,1967,2001,35,"808.004","25.48121414","355.1388731",55.69
1134040,1,1341,"SANKARANI","GOUALA","ML",11.97,-8.23,35300,-999,1954,1990,37,54.11519571,1954,1990,37,38.0952381,1954,1990,37,"314.791","9.927248976","281.2251835",76.83
1134050,1,1341,"SANKARANI","SELINGUE","ML",11.58,-8.17,34200,-999,1964,1992,29,36.90111154,1964,2012,49,45.83333333,1964,2012,49,"324.946","10.24749706","299.6344168",69.51
1134060,1,1341,"OUASSOULOU","YANFOLILA","ML",11.13,-8.2,4100,-999,1971,1979,9,53.93116514,1971,1979,9,51.92307692,1971,1979,9,"23.252","0.733275072","178.8475785",98.17
1134080,1,1341,"BAOULE","MADINA DIASSA","ML",10.8,-7.67,7900,-999,1971,1992,22,50.19399897,1971,1992,22,50.39370079,1971,1992,22,"42.151","1.329273936","168.2625235",88.62
1134100,1,1341,"NIGER, RIVER","KOULIKORO","ML",12.8667,-7.55,120000,290,1907,2006,100,0.831698489,1907,2012,106,16.42969984,1907,2012,106,"1372.034","43.26846422","360.5705352",25.81
1134110,1,1341,"BAOULE","BOUGOUNI","ML",11.4,-7.45,15700,-999,1956,1992,37,30.46776233,1956,2012,57,51.56950673,1956,2012,57,"98.869","3.117932784","198.5944448",84.55
1134150,1,1341,"BANIFING","KOLONDIEBA","ML",11.07,-6.85,3050,-999,1972,1992,21,60.22682831,1972,1992,21,58.73015873,1972,1992,21,"7.169","0.226081584","74.12510951",91.06
1134200,1,1341,"BAOULE","DIOILA","ML",12.52,-6.8,32500,-999,1953,1992,40,31.50334922,1953,1990,38,8.203991131,1953,1992,40,"164.773","5.196281328","159.8855793",68.29
1134220,1,1341,"BAGOE","PANKOUROU","ML",11.42,-6.57,31800,-999,1956,1992,37,31.63295657,1956,1992,37,3.189066059,1956,1992,37,"190.462","6.006409632","188.880806",68.29
1134250,1,1341,"NIGER, RIVER","KIRANGO AVAL","ML",13.7167,-6.05,137000,274,1925,2001,77,34.24082643,1925,2012,88,34.83253589,1925,2012,88,"1313.736","41.4299785","302.4086022",50.61
1134300,1,1341,"BANI","DOUNA","ML",13.2167,-5.9,101600,270,1922,2001,80,24.84837983,1922,2007,86,35.18518519,1922,2007,86,"435.195","13.72430952","135.0817866",47.15
1134310,1,1341,"BANIFING","KOUORO 2","ML",12.02,-6.68,14300,-999,1975,1990,16,61.86784141,1975,1990,16,61.82795699,1975,1990,16,"15.584","0.491457024","34.36762406",93.5
1134350,1,1341,"LOTIO","KLELA","ML",11.68,-5.58,3685,-999,1976,1979,4,33.25320513,1976,1979,4,31.70731707,1976,1979,4,"11.686","0.368529696","100.0080586",97.56
1134400,1,1341,"NIGER, RIVER","KE-MACINA","ML",13.95,-5.37,141000,-999,1953,1992,40,32.49828884,1953,1992,40,33.125,1953,1992,40,"1348.439","42.5243723","301.5912929",85.37
1134450,1,1341,"BANI","BENENY-KEGNY","ML",13.38,-4.92,116000,-999,1951,1992,42,44.79524439,1951,2012,62,60.32831737,1951,2012,62,"529.481","16.69771282","143.9458001",85.37
1134460,1,1341,"NIGER, RIVER","TILEMBEYA","ML",14.15,-4.98,143300,-999,1922,1992,71,53.38094868,1922,1992,71,53.30969267,1922,1992,71,"876.792","27.65051251","192.9554258",92.68
1134480,1,1341,"BANI","SOFARA","ML",14.02,-4.25,129000,-999,1952,1992,41,26.26869658,1952,1994,43,24.31372549,1952,1994,43,"368.55","11.6225928","90.0976186",81.3
1134500,1,1341,"NIGER, RIVER","NANTAKA (MOPTI)","ML",14.53,-4.22,281600,260,1922,2001,80,28.61087144,1922,2012,91,47.03703704,1922,2012,91,"994.606","31.36589482","111.3845697",46.54
1134700,1,1341,"NIGER, RIVER","DIRE","ML",16.2667,-3.3833,340000,256,1924,2003,80,6.971252567,1924,2012,89,18.56738926,1924,2012,89,"1009.784","31.84454822","93.66043595",38.41
1134730,1,1341,"NIGER, RIVER","KORYOUME","ML",16.6666,-3.0333,342000,256,1963,2001,39,24.15970962,1963,1992,30,62.32294618,1963,2001,39,"680.158","21.44946269","62.71772716",48.98
1134850,1,1341,"NIGER, RIVER","TOSSAYE","ML",16.93,-0.58,348000,-999,1954,1992,39,33.26238116,1954,1992,39,32.61339093,1954,1992,39,"1058.956","33.39523642","95.96332303",87.8
1134900,1,1341,"NIGER, RIVER","ANSONGO","ML",15.6667,0.5,566000,242,1951,2001,51,24.00835073,1951,2012,62,36.53846154,1951,2012,62,"879.883","27.74799029","49.02471782",47.15
1147010,1,1471,"CONGO RIVER","KINSHASA","CD",-4.3,15.3,3475000,-999,1903,2010,108,0.038025705,1903,1983,81,0,1903,2010,108,"39863.659","1257.14035","361.7670073",21.95
1159100,1,1591,"ORANGE RIVER","VIOOLSDRIF (27811003)","ZA",-28.757778,17.721389,866486,152,1935,2020,86,2.645400354,1935,2001,67,1.637279597,1935,2020,86,"243.994","7.694594784","8.880229783",0
1159103,1,1591,"ORANGE RIVER","PELLA MISSION","ZA",-28.96340283,19.15192169,859920,-999,1979,2020,42,6.196109886,NA,NA,NA,NA,1979,2020,42,"115.92","3.65565312","4.251154898",11.38
1159105,1,1591,"ORANGE RIVER","SENDELINGSDRIF","ZA",-28.07583,16.89833,985370,-999,2014,2020,7,0,NA,NA,NA,NA,2014,2020,7,"35.85","1.1305656","1.14735135",86.38
1159125,1,1591,"RENOSTERRIVIER","LEEUWENKUIL","ZA",-31.43716033,20.47416897,8938,-999,1987,2020,34,17.41628365,NA,NA,NA,NA,1987,2020,34,"0.503","0.015862608","1.774737973",35.37
1159130,1,1591,"SAK","HOL PADS LEEGTE (27814016)","ZA",-30.474444,20.519167,40073,919,1973,2020,48,2.362703855,NA,NA,NA,NA,1973,2020,48,"1.88","0.05928768","1.479491927",4.07
1159131,1,1591,"SAK","WINDHOEK (27814013)","ZA",-31.366111,21.322222,13116,1093,1958,1998,41,7.410462638,NA,NA,NA,NA,1958,1998,41,"1.046","0.032986656","2.514993596",53.46
1159290,1,1591,"ORANGE RIVER","KAKAMAS SOUTH NEUSBERG","ZA",-28.77466011,20.72242939,366070,-999,1993,2020,28,1.025950513,NA,NA,NA,NA,1993,2020,28,"151.282","4.770829152","13.03255976",36.79
1159300,1,1591,"ORANGE RIVER","UPINGTON","ZA",-28.457778,21.239167,364560,-999,1942,2020,79,2.593801551,1942,2001,60,0.988700565,1942,2020,79,"205.928","6.494145408","17.81365319",0.2
1159301,1,1591,"ORANGE RIVER","PRIESKA (27815102)","ZA",-29.651667,22.745833,339310,947,1959,2020,62,7.310984308,NA,NA,NA,NA,1959,2020,62,"170.439","5.374964304","15.84086618",10.77
1159302,1,1591,"ORANGE RIVER","MARKSDRIFT (27815208)","ZA",-29.161944,23.695833,99316,997,1962,2020,59,9.44418276,NA,NA,NA,NA,1962,2020,59,"140.127","4.419045072","44.49479512",14.63
1159303,1,1591,"ORANGE RIVER","VLUYTJESKRAAL (27815205)","ZA",-29.814722,24.4375,92346,1095,1922,1989,68,7.445632142,NA,NA,NA,NA,1922,1989,68,"38.433","1.212023088","13.12480333",76.83
1159304,1,1591,"ORANGE RIVER","IRENE","ZA",-29.1828515,23.57510692,296170,-999,1989,2020,32,32.57063616,NA,NA,NA,NA,1989,2020,32,"178.225","5.6205036","18.97728872",54.07
1159305,1,1591,"SEEKOEIRIVIER","DE EERSTEPOORT","ZA",-30.53472222,24.9625,8266,-999,1980,2020,41,0.074682599,NA,NA,NA,NA,1980,2020,41,"0.43","0.01356048","1.640512945",5.28
1159330,1,1591,"RIET","KLIPDRIFT","ZA",-29.0425,24.59916667,31233,-999,1989,2020,32,0.105300105,NA,NA,NA,NA,1989,2020,32,"5.905","0.18622008","5.962286044",26.02
1159335,1,1591,"MODDER","TWEERIVIERE","ZA",-29.02861111,24.63833333,17313,-999,1989,2020,32,3.915530136,NA,NA,NA,NA,1989,2020,32,"1.622","0.051151392","2.954507711",30.28
1159337,1,1591,"MODDER","GLEN","ZA",-28.94861111,26.32111111,4542,-999,1999,2020,22,3.963133641,NA,NA,NA,NA,1999,2020,22,"3.482","0.109808352","24.17621136",53.66
1159400,1,1591,"HARTS","TAUNG (27817303)","ZA",-27.573333,24.745833,11044,1091,1923,2020,98,1.892227745,NA,NA,NA,NA,1923,2020,98,"1.172","0.036960192","3.346630931",8.33
1159403,1,1591,"HARTS","ESPAGSDRIF","ZA",-27.90320789,24.61514311,23900,-999,1951,2020,70,3.50136186,NA,NA,NA,NA,1951,2020,70,"4.514","0.142353504","5.956213556",8.13
1159405,1,1591,"HARTS","LLOYDS","ZA",-28.38651139,24.29707622,30810,-999,1994,2020,27,15.92140202,NA,NA,NA,NA,1994,2020,27,"1.138","0.035887968","1.164815579",53.05
1159413,1,1591,"VETRIVIER","FIZANTKRAAL","ZA",-27.935,26.12444444,16153,-999,1968,2020,53,3.565185146,NA,NA,NA,NA,1968,2020,53,"6.102","0.192432672","11.91312276",6.91
1159415,1,1591,"VETRIVIER","VAALKOPPIES","ZA",-28.14444444,26.41805556,6994,-999,2003,2019,17,4.91942324,NA,NA,NA,NA,2003,2019,17,"8.658","0.273038688","39.03898885",63.41
1159417,1,1591,"SANDRIVIER","BLOUDRIF","ZA",-28.11722222,26.71916667,7092,-999,1995,2020,26,27.17002237,NA,NA,NA,NA,1995,2020,26,"2.459","0.077547024","10.93443655",59.76
1159450,1,1591,"VAAL RIVER","SCHMIDTSDRIF","ZA",-28.71149156,24.07290156,157830,-999,1995,2020,26,12.9857617,NA,NA,NA,NA,1995,2020,26,"33.181","1.046396016","6.629893024",49.8
1159490,1,1591,"VAAL RIVER","DE HOOP 65","ZA",-28.51622689,24.60069589,121220,-999,1968,2020,53,3.659113611,NA,NA,NA,NA,1968,2020,53,"40.614","1.280803104","10.56593882",6.71
1159500,1,1591,"VAAL RIVER","DE HOOP 65","ZA",-28.498889,24.603056,120982,-999,1909,2001,93,1.713553463,1909,1986,78,30.73593074,1909,2001,93,"1.137","0.035856432","0.296378238",45.93
1159510,1,1591,"VALSRIVIER","GROOTDRAAI (27817602)","ZA",-27.398333,26.613056,7801,1259,1950,2019,70,71.07926805,NA,NA,NA,NA,1950,2019,70,"0.601","0.018953136","2.429577746",73.78
1159511,1,1591,"VALSRIVIER","MOOIFONTEIN (27817603)","ZA",-27.399722,26.625556,7794,1259,1967,2010,44,1.282542113,NA,NA,NA,NA,1967,2010,44,"3.683","0.116147088","14.90211547",28.86
1159513,1,1591,"VALSRIVIER","KROONSTAD","ZA",-27.67138889,27.23694444,3289,-999,1994,2020,27,4.441853069,NA,NA,NA,NA,1994,2020,27,"3.303","0.104163408","31.67023655",43.29
1159525,1,1591,"RENOSTERRIVIER","ARRIESRUST","ZA",-27.04628,27.00464,5758,-999,1978,2020,43,1.625057336,NA,NA,NA,NA,1978,2020,43,"3.196","0.100789056","17.50417784",5.49
1159535,1,1591,"VAAL RIVER","KLIPPLAATDRIFT","ZA",-27.38972222,26.46388889,79903,-999,1972,2020,49,0.34980817,NA,NA,NA,NA,1972,2020,49,"61.828","1.949807808","24.40218525",0.61
1159545,1,1591,"VAAL RIVER","PILGRIMS ESTATE","ZA",-27.01011,26.69808,63437,-999,1979,2019,41,2.005574818,NA,NA,NA,NA,1979,2019,41,"52.333","1.650373488","26.01594476",10.37
1159548,1,1591,"MOOIRIVIER","WITRAND","ZA",-26.64428,27.09033,3595,-999,1904,2020,117,1.177303291,NA,NA,NA,NA,1904,2020,117,"1.574","0.049637664","13.80741697",6.91
1159550,1,1591,"VAAL RIVER","DE VAAL","ZA",-26.97056,27.20967,49120,-999,1938,2020,83,3.168576325,NA,NA,NA,NA,1938,2020,83,"54.383","1.715022288","34.91494886",12.4
1159555,1,1591,"VAAL RIVER","WOODLANDS","ZA",-26.73828,27.59197,47222,-999,1996,2020,25,19.33669956,NA,NA,NA,NA,1996,2020,25,"50.472","1.591684992","33.70642904",56.5
1159580,1,1591,"SUIKERBOSRANTRIVIER","UITVLUGT","ZA",-26.67075,28.03044,3474,-999,1952,2017,66,30.59996634,NA,NA,NA,NA,1952,2017,66,"4.129","0.130212144","37.48190674",56.3
1159650,1,1591,"ORANGE RIVER","ALIWAL NOORD (27819103)","ZA",-30.678056,26.716389,37070,1298,1914,2020,107,0.831494123,1915,2001,87,0,1914,2020,107,"139.662","4.404380832","118.8125393",1.63
1159651,1,1591,"ORANGE RIVER","ORANJEDRAAI (27819109)","ZA",-30.336389,27.358333,24745,1394,1960,2020,61,2.641061898,NA,NA,NA,NA,1960,2020,61,"120.987","3.815446032","154.1905852",10.77
1159653,1,1591,"KORNETSPRUIT","MAGHALEEN","ZA",-30.15972222,27.40138889,2990,-999,1948,2020,73,13.39604036,NA,NA,NA,NA,1948,2020,73,"18.377","0.579537072","193.8251077",20.33
1159655,1,1591,"ORANGE RIVER","LESOTHO - MANTILANE","ZA",-30.06186111,28.50975,10735,-999,1987,2019,33,2.246242189,NA,NA,NA,NA,1987,2019,33,"43.904","1.384556544","128.975924",24.39
1159660,1,1591,"KRAAIRIVIER","ROODEWAL (27819111)","ZA",-30.830556,26.920556,8689,1320,1965,2020,56,5.43245531,NA,NA,NA,NA,1965,2020,56,"20.308","0.640433088","73.70619036",5.08
1159673,1,1591,"CALEDON RIVER","FICKSBURG","ZA",-28.88388889,27.88944444,3857,-999,1991,2020,30,6.717267552,NA,NA,NA,NA,1991,2020,30,"15.57","0.49101552","127.305035",37.8
1159675,1,1591,"CALEDON RIVER","WILGERDRAAI","ZA",-29.61666667,27.06555556,12852,-999,1988,2020,33,6.893887363,NA,NA,NA,NA,1988,2020,33,"29.569","0.932487984","72.55586555",32.93
1159800,1,1591,"VAAL RIVER","ELANDSFONTEIN ENGELBRECHTSDRIFT","ZA",-26.820222,28.063306,38564,-999,1915,1993,79,10.79414032,1915,1993,79,9.904153355,1915,1993,79,"47.538","1.499158368","38.87455575",63.41
1159805,1,1591,"WILGERIVIER","FRANKFORT","ZA",-27.27166667,28.49111111,15673,-999,1913,2020,108,2.338581466,NA,NA,NA,NA,1913,2020,108,"25.631","0.808299216","51.57271843",3.25
1159810,1,1591,"WILGERIVIER","SLABBERTS (27817822)","ZA",-27.298333,28.495556,15522,1498,1961,2008,48,5.33403905,NA,NA,NA,NA,1961,2008,48,"30.023","0.946805328","60.99763742",38.21
1159811,1,1591,"LIEBENBERGSVLEIRIVIER","FREDERIKSDAL","ZA",-27.43083333,28.52638889,4650,-999,1985,2020,36,8.280501005,NA,NA,NA,NA,1985,2020,36,"20.552","0.648127872","139.3823381",23.78
1159813,1,1591,"WILGERIVIER","BALLINGTOMP","ZA",-27.30138889,28.58555556,10489,-999,1985,2020,36,2.18557984,NA,NA,NA,NA,1985,2020,36,"24.514","0.773073504","73.70326094",18.7
1159815,1,1591,"WILGERIVIER","BAVARIA","ZA",-27.80277778,28.7675,7497,-999,1988,2020,33,9.832833262,NA,NA,NA,NA,1988,2020,33,"18.71","0.59003856","78.70328932",33.94
1159880,1,1591,"VAAL RIVER","NOOITGEDACHT","ZA",-27.00231,28.76528,15500,-999,1985,2020,36,2.755229472,NA,NA,NA,NA,1985,2020,36,"25.819","0.814227984","52.53083768",21.75
1159890,1,1591,"VAAL RIVER","GOEDGELUK","ZA",-26.84108,29.72336,4686,-999,1972,2020,49,1.865373645,NA,NA,NA,NA,1972,2020,49,"11.439","0.360740304","76.98256594",4.67
1159900,1,1591,"KLIPRIVIER","DELANGESDRIFT","ZA",-27.169444,29.233056,4152,-999,1906,2019,114,4.835744351,1906,2001,96,2.624671916,1906,2019,114,"5.345","0.16855992","40.59728324",0.81
1160235,1,1606,"DORINGRIVIER","MELKBOOM","ZA",-31.8625,18.68639,24044,-999,1927,2020,94,1.246692149,NA,NA,NA,NA,1927,2020,94,"11.727","0.369822672","15.38107935",2.24
1160266,1,1609,"BERGRIVIER","DRIEHEUVELS","ZA",-33.13083333,18.86277778,2936,-999,1964,2020,57,0.976186955,NA,NA,NA,NA,1964,2020,57,"16.576","0.522740736","178.0452098",1.42
1160303,1,1600,"BREE","WOLVENDRIFT","ZA",-33.89777778,20.01166667,6713,-999,1970,2019,50,1.854965254,NA,NA,NA,NA,1970,2019,50,"25.741","0.811768176","120.924799",8.33
1160304,1,1600,"BREE","LE CHASSEUR","ZA",-33.81805556,19.69333333,4355,-999,1980,2019,40,0.946795732,NA,NA,NA,NA,1980,2019,40,"29.811","0.940119696","215.8713424",8.54
1160305,1,1600,"BREE","SWELLEN DAM","ZA",-34.0675,20.40555556,9842,-999,1966,2019,54,1.39820452,NA,NA,NA,NA,1966,2019,54,"34.692","1.094046912","111.1610356",3.46
1160320,1,1606,"DORINGRIVIER","ELANDS DRIFT - ASPOORT (27712202)","ZA",-32.502778,19.535,6895,389,1923,2019,97,3.635025338,1923,2001,79,2.665245203,1923,2019,97,"8.098","0.255378528","37.03822016",3.05
1160350,1,1605,"TOUWSRIVIER","ZANDFONTEIN","ZA",-33.571944,20.701944,2900,459,1969,2001,33,3.708987161,1969,1980,12,0,1969,2001,33,"0.489","0.015421104","5.317622069",46.95
1160352,1,1605,"TOUWS","OKKERSKRAAL","ZA",-33.69388889,21.14305556,5837,-999,1982,2020,39,1.139438826,NA,NA,NA,NA,1982,2020,39,"0.487","0.015358032","2.631151619",11.18
1160353,1,1605,"GROOTRIVIER","BUFFELSFONTEIN","ZA",-33.74916667,21.44444444,12493,-999,1982,2020,39,0.823546262,NA,NA,NA,NA,1982,2020,39,"1.39","0.04383504","3.50876811",11.99
1160373,1,1605,"GOURITZ","ZEEKOEDRIFT","ZA",-33.98027778,21.65333333,43451,-999,1964,2020,57,27.9320002,NA,NA,NA,NA,1964,2020,57,"2.664","0.084011904","1.933486088",32.32
1160376,1,1605,"GAMKARIVIER","HUIS RIVER","ZA",-33.50222222,21.62277778,7805,-999,1982,2020,39,1.014315517,NA,NA,NA,NA,1982,2020,39,"1.399","0.044118864","5.652641127",11.38
1160378,1,1605,"GAMKARIVIER","SPEK BOOM BERG","ZA",-33.31,21.634167,17076,-999,1964,2016,53,5.727036073,NA,NA,NA,NA,1964,2016,53,"1.373","0.043298928","2.535659874",17.48
1160380,1,1605,"OLIFANTSRIVIER","PARDEKLOOF (27693304)","ZA",-33.476944,23.029444,4230,571,1923,1993,71,1.490248506,NA,NA,NA,NA,1923,1993,71,"0.385","0.01214136","2.870297872",65.85
1160391,1,1605,"OLIFANTSRIVIER","WARM WATER","ZA",-33.66,21.77305556,10927,-999,1969,1990,22,20.66073042,NA,NA,NA,NA,1969,1990,22,"0.616","0.019426176","1.777814222",71.95
1160460,1,1600,"GROOTRIVIER","GROOTRIVIERSPOORT (27691206)","ZA",-33.730833,24.617778,29571,133,1964,2020,57,0.871164456,NA,NA,NA,NA,1964,2020,57,"2.238","0.070577568","2.386715634",1.42
1160481,1,1600,"SOUTRIVIER","KLIPKRAAL (27691902)","ZA",-32.068889,23.0075,3672,1003,1973,1988,16,1.274813331,NA,NA,NA,NA,1973,1988,16,"2.691","0.084863376","23.11094118",78.66
1160493,1,1600,"SONDAGSRIVIER","DE DRAAY","ZA",-33.09930556,25.0115,13422,-999,1978,2020,43,0.878836834,NA,NA,NA,NA,1978,2020,43,"0.626","0.019741536","1.470834153",4.07
1160510,1,1603,"GREAT FISH RIVER","BRANDT LEGTE PIGGOT'S BRIDGE","ZA",-33.098056,26.444722,23067,300,1935,2020,86,0.534724907,1935,2001,67,7.682619647,1935,2020,86,"6.302","0.198739872","8.615765899",0
1160511,1,1603,"GREAT FISH RIVER","KATKOP (27673901)","ZA",-31.903056,25.481667,9545,975,1918,1993,76,0.702344807,NA,NA,NA,NA,1918,1993,76,"8.798","0.277453728","29.06796522",66.46
1160528,1,1603,"GREAT FISH RIVER","RIETFONTYN","ZA",-32.08583333,25.57583333,10830,-999,1977,2020,44,0.707070707,NA,NA,NA,NA,1977,2020,44,"15.167","0.478306512","44.16495956",2.64
1160529,1,1603,"TARKARIVIER","BRIDGE FARM","ZA",-32.31419444,25.74111111,4742,-999,1980,2020,41,0.129648584,NA,NA,NA,NA,1980,2020,41,"0.539","0.016997904","3.584543231",4.27
1160533,1,1603,"GREAT FISH RIVER","SOUT VLEIJ","ZA",-33.02763889,25.89330556,19130,-999,1975,2020,46,2.854052755,NA,NA,NA,NA,1975,2020,46,"6.147","0.193851792","10.13339216",4.67
1160580,1,1603,"GREAT FISH RIVER","MATOLEMA'S LOCATION OUTSPAN","ZA",-33.237778,26.994722,29745,38,1969,2020,52,8.761345435,1969,2001,33,11.8251928,1969,2020,52,"10.169","0.320689584","10.7812938",0.81
1160600,1,1600,"KEISKAMMARIVIER","FARM 7","ZA",-33.185278,27.390556,2530,7,1969,2020,52,2.909615077,1969,2001,33,0,1969,2020,52,"3.227","0.101766672","40.22398103",2.44
1160682,1,1600,"MZIMKULU","BEZWENI","ZA",-30.24733333,29.92908333,3586,-999,1956,2018,63,38.49376114,NA,NA,NA,NA,1956,2018,63,"23.385","0.73746936","205.6523592",57.72
1160701,1,1600,"MKOMAZI","DELOS ESTATE (27662506)","ZA",-30.168889,30.696944,4358,30,1962,2007,46,8.722703428,NA,NA,NA,NA,1962,2007,46,"29.951","0.944534736","216.7358274",41.87
1160703,1,1600,"MKOMAZI","SHOZI","ZA",-30.13561111,30.67372222,4328,-999,2004,2020,17,10.3173227,NA,NA,NA,NA,2004,2020,17,"24.749","0.780484464","180.3337486",66.87
1160725,1,1600,"UMGENI","INANDA LOC.","ZA",-29.64244444,30.68861111,3771,-999,1989,2020,32,5.327722063,NA,NA,NA,NA,1989,2020,32,"7.245","0.22847832","60.58825776",32.72
1160740,1,1600,"MBASHE","BASHEE BRIDGE (27663804)","ZA",-31.920278,28.447778,4942,460,1956,2007,52,55.99245893,NA,NA,NA,NA,1956,2007,52,"8.443","0.266258448","53.87665884",80.89
1160763,1,1600,"ITITSA","XONKONXA","ZA",-31.23805556,28.85222222,4285,-999,1951,2020,70,12.4508987,NA,NA,NA,NA,1951,2020,70,"24.177","0.762445872","177.9336924",13.21
1160770,1,1600,"TINA","MAHLUNGULU (27663505)","ZA",-31.031667,28.884444,2573,819,1951,2020,70,19.19616315,NA,NA,NA,NA,1951,2020,70,"14.783","0.466196688","181.187986",12.6
1160772,1,1600,"MZINTLAVA","LUDIWANA","ZA",-31.10427778,29.39972222,2703,-999,2001,2020,20,5.667734299,NA,NA,NA,NA,2001,2020,20,"2.504","0.078966144","29.21425971",58.33
1160773,1,1600,"MZIMVUBU","KU-MAKHOLA","ZA",-30.86013889,29.07125,6906,-999,1984,2020,37,14.27022002,NA,NA,NA,NA,1984,2020,37,"25.424","0.801771264","116.0977793",29.88
1160774,1,1600,"KINIRA","MGUNGUNDLOVU","ZA",-30.77586667,29.03221667,3059,-999,2006,2020,15,4.446583253,NA,NA,NA,NA,2006,2020,15,"10.948","0.345256128","112.8656842",68.5
1160777,1,1600,"MZIMVUBU","NTONTELA","ZA",-31.3955,29.26508333,19273,-999,2009,2019,11,0.106695119,NA,NA,NA,NA,2009,2019,11,"74.559","2.351292624","121.999306",75.2
1160788,1,1600,"UMGENI","INANDA MISSION RES","ZA",-29.71511,30.86917,4084,-999,1989,2020,32,1.949012442,NA,NA,NA,NA,1989,2020,32,"6.194","0.195333984","47.82908521",27.24
1160850,1,1604,"BUFFELSRIVIER","TAYSIDE","ZA",-28.059167,30.373333,5887,1136,1960,2020,61,8.1326937,1960,2001,42,7.302231237,1960,2020,61,"15.478","0.488114208","82.91391337",3.66
1160880,1,1604,"TUGELA RIVER","MANDINI (27661102)","ZA",-29.140278,31.3925,28920,38,1959,2017,59,16.64240432,1959,2001,43,16.83168317,1959,2017,59,"87.213","2.750349168","95.10197676",19.51
1160881,1,1604,"TUGELA RIVER","TUGELA DRIFT (27661701)","ZA",-28.735833,29.820833,4154,960,1937,2020,84,16.8747735,NA,NA,NA,NA,1937,2020,84,"25.5","0.804168","193.58883",9.15
1160883,1,1604,"TUGELA RIVER","TUGELA FERRY","ZA",-28.75002778,30.44222222,12862,-999,1927,2020,94,8.531641107,NA,NA,NA,NA,1927,2020,94,"76.842","2.423289312","188.4068817",9.15
1160915,1,1600,"WIT-MFOLOZI","OVERVLOED","ZA",-28.33936111,31.37383333,3939,-999,1960,2019,60,8.522094319,NA,NA,NA,NA,1960,2019,60,"7.789","0.245633904","62.35945773",14.02
1160919,1,1600,"MFOLOZI","STATE LAND","ZA",-28.44563889,32.32513889,9099,-999,1993,2019,27,11.64383562,NA,NA,NA,NA,1993,2019,27,"17.075","0.5384772","59.17982196",48.17
1160930,1,1600,"MKUZE","MORRISVALE (27650111)","ZA",-27.660278,32.4225,5068,20,1970,1990,21,13.95286195,NA,NA,NA,NA,1970,1990,21,"4.056","0.127910016","25.23875612",79.07
1160979,1,1600,"MHLATUZE","UMHLATUZE VALLEY","ZA",-28.80127778,31.95538889,2678,-999,1993,2019,27,8.837111671,NA,NA,NA,NA,1993,2019,27,"2.456","0.077452416","28.92173861",46.95
1196100,1,1961,"ELEFANTES, RIO DOS","FINALE (27521009)","ZA",-24.331111,30.741389,42714,437,1960,2015,56,27.41943493,NA,NA,NA,NA,1960,2015,56,"24.159","0.761878224","17.83673325",43.5
1196101,1,1961,"ELEFANTES, RIO DOS","ZEEKOEGAT (27526002)","ZA",-24.268056,29.801111,31627,725,1948,1980,33,3.896103896,NA,NA,NA,NA,1948,1980,33,"38.818","1.224164448","38.70630942",97.56
1196102,1,1961,"ELEFANTES, RIO DOS","LOSKOP NOORD (27527001)","ZA",-24.926389,29.389444,16622,832,1938,2011,74,5.453862056,NA,NA,NA,NA,1938,2011,74,"4.928","0.155409408","9.349621466",33.74
1196104,1,1961,"WILGERIVIER","WATERVAL","ZA",-25.57877778,29.12747222,4293,-999,2005,2019,15,0.335695636,NA,NA,NA,NA,2005,2019,15,"5.123","0.161558928","37.63310692",65.45
1196105,1,1961,"ELEFANTES, RIO DOS","LOSKOP NOORD","ZA",-24.95861111,29.39527778,16447,-999,2007,2020,14,12.39070164,NA,NA,NA,NA,2007,2020,14,"6.14","0.19363104","11.77303095",74.19
1196106,1,1961,"ELANDSRIVIER","SKERP ARABIE","ZA",-24.92647222,29.32338889,6119,-999,1989,2019,31,7.309120551,NA,NA,NA,NA,1989,2019,31,"0.837","0.026395632","4.31371662",34.76
1196213,1,1961,"KLEIN-LETABA","LOCATIE VAN TABAAN","ZA",-23.2810156,30.54309374,2988,-999,1986,2020,35,12.31498896,NA,NA,NA,NA,1986,2020,35,"0.739","0.023305104","7.799566265",30.08
1196215,1,1961,"GROOT-LETABA","LETABA RANCH","ZA",-23.65837248,31.04990442,4710,-999,1959,2020,62,14.3420051,NA,NA,NA,NA,1959,2020,62,"2.992","0.094355712","20.03305987",3.25
1196220,1,1961,"LETABA","ENGELHARDT DAM KRUGER NATIONAL PARK","ZA",-23.83532041,31.63744893,12938,-999,1984,2020,37,12.26021685,NA,NA,NA,NA,1984,2020,37,"11.019","0.347495184","26.85849312",28.05
1196400,1,1961,"LIMPOPO RIVER","BOTSWANA OXENHAM RANCH","ZA",-22.950762,27.973589,98160,770,1959,2002,44,26.0847207,1959,2001,43,52.18253968,1959,2002,44,"21.356","0.673482816","6.861071883",69.11
1196405,1,1961,"LIMPOPO RIVER","BOTSWANA","ZA",-22.93476395,28.00392156,98240,-999,1971,2019,49,9.575484959,NA,NA,NA,NA,1971,2019,49,"13.64","0.43015104","4.37857329",8.54
1196413,1,1961,"CROCODILE","KALKHEUWEL","ZA",-25.81056,27.90983,2551,-999,1922,2020,99,0.653886995,NA,NA,NA,NA,1922,2020,99,"6.323","0.199402128","78.16625951",3.25
1196440,1,1961,"CROCODILE","VAALKOP","ZA",-25.20631,27.55794,12674,-999,1983,2020,38,9.981837995,NA,NA,NA,NA,1983,2020,38,"8.059","0.254148624","20.05275556",21.34
1196447,1,1961,"PIENAARS","BUFFELSPOORT","ZA",-25.12856,27.62858,7483,-999,1955,2020,66,0.707189763,NA,NA,NA,NA,1955,2020,66,"4.302","0.135667872","18.13014459",2.03
1196450,1,1961,"CROCODILE","HAAKDORINGDRIFT","ZA",-24.69508,27.409,22270,-999,1987,2020,34,5.555555556,NA,NA,NA,NA,1987,2020,34,"9.557","0.301389552","13.53343296",29.67
1196455,1,1961,"CROCODILE","MAKOPPA","ZA",-24.39619,27.08983,28780,-999,2002,2020,19,12.41221374,NA,NA,NA,NA,2002,2020,19,"13.408","0.422834688","14.69196275",65.65
1196500,1,1961,"SANDRIVIER","ZAMENKOMST (27543003)","ZA",-23.067423,29.578913,6731,831,1947,1995,49,8.40685298,NA,NA,NA,NA,1947,1995,49,"0.47","0.01482192","2.20203833",61.79
1196540,1,1961,"SANDRIVIER","WATERPOORT","ZA",-22.91019232,29.61103918,7712,-999,2002,2019,18,0,NA,NA,NA,NA,2002,2019,18,"0.438","0.013812768","1.791074689",57.72
1196550,1,1961,"LIMPOPO RIVER","BEITBRUG U/S","ZA",-22.224444,29.986944,201000,423,1955,1992,38,25.73121066,1955,1987,33,35.90425532,1955,1992,38,"61.395","1.93615272","9.632600597",89.84
1196551,1,1961,"LIMPOPO RIVER","BEITBRUG D/S","ZA",-22.226111,29.990278,201001,428,1992,2019,28,3.599358332,1992,2001,10,45.28301887,1992,2019,28,"40.912","1.290200832","6.418877677",35.77
1196569,1,1961,"MAGALAKWENA","LENIESRUS","ZA",-22.55021523,28.89740445,15845,-999,1995,2019,25,6.669611307,NA,NA,NA,NA,1995,2019,25,"3.175","0.1001268","6.319141685",45.73
1196600,1,1961,"ELEFANTES, RIO DOS","WOLWEKRANS","ZA",-26.006389,29.253889,3256,1517,1972,2019,48,2.768561949,1972,2001,30,0.286532951,1972,2019,48,"4.512","0.142290432","43.70099263",1.63
1196800,1,1961,"ELEFANTES, RIO DOS","OXFORD","ZA",-24.18473,30.82299,46583,-999,1966,2019,54,24.78521892,NA,NA,NA,NA,1966,2019,54,"31.421","0.990892656","21.27155091",37.6
1196850,1,1961,"ELEFANTES, RIO DOS","MAMBA KRUGER NATIONAL PARK","ZA",-24.06628,31.24288,49826,-999,1987,2020,34,9.991496599,NA,NA,NA,NA,1987,2020,34,"30.488","0.961469568","19.29654333",32.93
1197001,1,1971,"INCOMATI, RIO","TONGA (27613103)","ZA",-25.682222,31.781667,8864,215,1939,2019,81,3.608317942,NA,NA,NA,NA,1939,2019,81,"20.126","0.634693536","71.60351264",6.3
1197010,1,1971,"INCOMATI, RIO","GEMSBOKHOEK","ZA",-25.83811111,30.41277778,2611,-999,1972,2019,48,8.086956522,NA,NA,NA,NA,1972,2019,48,"4.683","0.147683088","56.5618874",13.21
1197090,1,1971,"INCOMATI, RIO","KOMATIPOORT","ZA",-25.43661111,31.98244444,21652,-999,1982,2019,38,5.541580349,NA,NA,NA,NA,1982,2019,38,"28.012","0.883386432","40.79929946",16.67
1197300,1,1971,"INCOMATI, RIO","HOOGGENOEG (27613101)","ZA",-26.036111,30.9975,5540,746,1909,2019,111,4.818527824,1909,2001,93,5.887681159,1909,2019,111,"14.633","0.461466288","83.2971639",4.07
1197500,1,1971,"KROKODILRIVIER","TENBOSCH (27613216)","ZA",-25.363611,31.955556,10379,140,1960,2019,60,8.607922991,NA,NA,NA,NA,1960,2019,60,"18.793","0.592656048","57.10145949",10.16
1197501,1,1971,"KROKODILRIVIER","KARINO (27613206)","ZA",-25.469722,31.088056,5131,519,1929,2019,91,0.145923269,NA,NA,NA,NA,1929,2019,91,"16.325","0.5148252","100.3362308",2.24
1197505,1,1971,"KROKODILRIVIER","WELTEVREDE","ZA",-25.51419444,31.22452778,5380,-999,1968,2019,52,1.977174088,NA,NA,NA,NA,1968,2019,52,"13.742","0.433367712","80.55161933",2.03
1197507,1,1971,"KROKODILRIVIER","RIVERSIDE","ZA",-25.39888889,31.61055556,8473,-999,1985,2019,35,1.52426795,NA,NA,NA,NA,1985,2019,35,"19.954","0.629269344","74.26759636",20.33
1197750,1,1971,"SABIE, RIO","LOWER SABIE RESTCAMP KRUGER NATIONAL PARK","ZA",-25.14952778,31.94066667,5715,-999,1987,2020,34,8.958575944,NA,NA,NA,NA,1987,2020,34,"13.247","0.417757392","73.0984063",30.89
1199310,1,1991,"PONGOLO","M'HLATI","ZA",-27.36325,31.78261111,6846,-999,1968,2020,53,3.213408775,NA,NA,NA,NA,1968,2020,53,"21.273","0.670865328","97.99376687",7.32
1201150,1,1011,"MELLEGUE, OUED","K13","TN",36.12,8.5,9000,327,NA,NA,NA,NA,1976,1979,4,0,1976,1979,4,"4.644","0.146453184","16.272576",97.56
1201500,1,1011,"MAJARDAH, WADI","SLOUGHIA","TN",36.58,9.52,20895,67,NA,NA,NA,NA,1976,1979,4,0,1976,1979,4,"18.179","0.573292944","27.43684824",97.56
1216350,1,1160,"ROKEL CREEK","BUMBUNA","SL",9.033333,-11.75,3990,12,1970,1976,7,0,1976,1979,4,16.66666667,1970,1979,10,"113.96","3.59384256","900.7124211",98.37
1216450,1,1160,"SEWA","JAIAMA SAWAFE","SL",8.5667,-11.2667,6870,25,1971,1976,6,0,1976,1979,4,19.14893617,1971,1979,9,"197.995","6.24397032","908.8748646",98.17
1234050,1,1341,"GOROUOL","DOLBEL","NE",14.62,0.3,7500,-999,1961,1988,28,9.04718966,1961,1988,28,8.841463415,1961,1988,28,"9.112","0.287356032","38.3141376",83.13
1234080,1,1341,"GOROUOL","ALCONGUI","NE",14.75,0.6,44900,227,1961,1988,28,20.66720096,1957,1989,33,6.666666667,1957,1989,33,"9.854","0.310755744","6.921063341",76.02
1234100,1,1341,"DARGOL","TERA","NE",14.02,0.75,2750,-999,1961,1987,27,20.26830283,1961,1987,27,20.25316456,1961,1987,27,"2.873","0.090602928","32.94651927",92.68
1234120,1,1341,"DARGOL","KAKASSI","NE",13.85,1.47,6940,198,1957,1988,32,14.58533601,1957,1988,32,14.09574468,1957,1988,32,"5.213","0.164397168","23.68835274",83.13
1234130,1,1341,"SIRBA","GARBE-KOUROU","NE",13.7333,1.6167,38750,287,1956,2002,47,23.67084914,1956,2010,55,54.58715596,1956,2010,55,"22.485","0.70908696","18.29901832",58.54
1234150,1,1341,"NIGER, RIVER","NIAMEY","NE",13.52,2.09,7e+05,174.85,1929,2020,92,9.864088133,1929,2012,84,34.83033932,1929,2020,92,"898.897","28.34761579","40.49659399",0
1234180,1,1341,"GOROUBI","DIONGORE AMONT","NE",12.96,2.32,15350,-999,1962,1988,27,22.86900074,1962,1988,27,22.97734628,1962,1988,27,"5.708","0.180007488","11.72687218",89.63
1234190,1,1341,"DYAMONGOU","TAMOU","NE",12.74,2.24,4030,-999,1962,1981,20,7.36318408,1962,1981,20,6.926406926,1962,1981,20,"2.892","0.091202112","22.63079702",96.34
1234200,1,1341,"TAPOA","CAMPEMENT DU DOUBLE VE","NE",12.47,2.42,5330,215,1963,1988,26,17.66706902,1963,1988,26,17.39130435,1963,1988,26,"0.921","0.029044656","5.449278799",86.59
1234250,1,1341,"NIGER, RIVER","GAYA","NE",11.88,3.4,1e+06,-999,NA,NA,NA,NA,1952,1990,39,19.60784314,1952,1990,39,"1100.748","34.71318893","34.71318893",86.79
1234500,1,1341,"MAJIA","TSERNAOUA","NE",13.88,5.33,2525,275,1976,1987,12,13.96810053,1976,1987,12,13.97058824,1976,1987,12,"1.402","0.044213472","17.51028594",83.54
1234650,1,1341,"MARADI, RIVER","GUINDAM ROUMDJI","NE",13.67,6.77,8800,313,1976,1979,4,0.06844627,1976,1979,4,0,1976,1979,4,"5.029","0.158594544","18.02210727",97.56
1234680,1,1341,"MARADI, RIVER","MADAROUNFA","NE",13.32,7.17,5400,355,1976,1979,4,0.137931034,1956,1979,24,8.510638298,1956,1979,24,"5.858","0.184737888","34.21072",97.56
1234700,1,1341,"MARADI, RIVER","NIELLOUA","NE",13.15,7.22,4800,378,1976,1987,12,20.6138231,1976,1987,12,20.58823529,1976,1987,12,"6.811","0.214791696","44.74827",85.37
1237500,1,1371,"KOMADOUGOU YOBE","BAGARA DIFFA","NE",13.28,12.6,115000,298,1976,1980,5,0.067024129,1967,1990,24,0,1967,1990,24,"15.28","0.48187008","4.190174609",70.73
1253100,1,1531,"MALAGARASI","TARAGI ROAD BRIDGE","TZ",-4.03,30.58,8525,-999,NA,NA,NA,NA,1971,1979,9,5.555555556,1971,1979,9,"67.863","2.140127568","251.041357",97.56
1253350,1,1531,"KALAMBO RIVER","KALAMBO FALLS (55773185)","TZ",-8.6,31.1944,3835,-999,1975,1980,6,0.515168861,NA,NA,NA,NA,1975,1980,6,"13.952","0.439990272","114.7301883",96.95
1255100,1,1551,"KUNENE RIVER","RUACANA (64740001)",NA,-17.4,14.2,89600,800,1961,2021,61,0,NA,NA,NA,NA,1961,2021,61,"178.828","5.639519808","62.94106929",0
1257100,1,1571,"OKAVANGO RIVER","RUNDU (64932101)",NA,-17.9,19.75,97300,1060,1945,2021,77,8.537469198,NA,NA,NA,NA,1945,2021,77,"178.444","5.627409984","57.83566273",16.26
1257101,1,1571,"OKAVANGO RIVER","MUKWE (64932102)",NA,-18.03333333,21.41666667,206000,1100,1949,2020,72,0,NA,NA,NA,NA,1949,2020,72,"312.767","9.863420112","47.88068016",0
1257200,1,1571,"OMATAKO","OUSEMA (64932301)",NA,-21.21666667,17.1,4970,1358,1961,2004,44,3.96121707,NA,NA,NA,NA,1961,2004,44,"0.957","0.030179952","6.07242495",44.92
1258100,1,1580,"HOANIB","SESFONTEIN",NA,-19.17388889,13.57108333,11000,520,1976,2018,43,7.363934426,NA,NA,NA,NA,1976,2018,43,"0.32","0.01009152","0.917410909",12.6
1258200,1,1580,"UGAB","VINGERKLIP (64734002)",NA,-20.4,15.46666667,14200,910,1967,2018,52,2.55558532,NA,NA,NA,NA,1967,2018,52,"0.391","0.012330576","0.868350423",5.89
1258201,1,1580,"UGAB","UGAB SLAB (64734003)",NA,-21.06666667,13.8,28900,100,1977,2018,42,7.010923535,NA,NA,NA,NA,1977,2018,42,"0.143","0.004509648","0.156043183",11.38
1258202,1,1580,"UGAB","PETERSBURG (64734001)",NA,-20.2,16.13333333,7720,1140,1961,2018,58,0.113943883,NA,NA,NA,NA,1961,2018,58,"0.092","0.002901312","0.375817617",3.66
1258300,1,1580,"OMARURU","ETEMBA (64733002)",NA,-21.43333333,15.66666667,3810,1072,1967,2018,52,0,NA,NA,NA,NA,1967,2018,52,"0.797","0.025134192","6.596900787",2.85
1258350,1,1580,"KHAN","AMEIB (64732004)",NA,-21.81666667,15.61666667,4010,1210,1967,2017,51,9.619699042,NA,NA,NA,NA,1967,2017,51,"0.245","0.00772632","1.926763092",17.48
1258400,1,1580,"SWAKOP","WESTFALENHOF (64732003)",NA,-22.26666667,16.41666667,8860,1040,1962,2018,57,16.56373637,NA,NA,NA,NA,1962,2018,57,"0.46","0.01450656","1.637309255",27.44
1258500,1,1580,"KUISEB","GOBABEB",NA,-23.5,14.96666667,11700,360,1977,2020,44,1.137162205,NA,NA,NA,NA,1977,2020,44,"0.435","0.01371816","1.172492308",2.24
1258501,1,1580,"KUISEB","SCHLESIEN WEIR (64731001)",NA,-23.26666667,15.8,6520,800,1961,2018,58,3.375125137,NA,NA,NA,NA,1961,2018,58,"0.422","0.013308192","2.041133742",9.55
1258503,1,1580,"KUISEB","ROOIBANK (64731011)",NA,-23.16666667,14.65,14700,120,1976,2018,43,6.892351093,NA,NA,NA,NA,1976,2018,43,"0.291","0.009176976","0.624284082",12.2
1259060,1,1591,"KAMRIVIER","DRAAIHOEK (64812002)",NA,-24.18333333,17.01666667,3450,1285,1976,2020,45,11.36235867,NA,NA,NA,NA,1976,2020,45,"0.834","0.026301024","7.623485217",15.24
1259080,1,1591,"HUDUP","RIETKUIL (64812006)",NA,-25.11666667,17.51666667,5850,1100,1973,2019,47,8.452481077,NA,NA,NA,NA,1973,2019,47,"0.879","0.027720144","4.738486154",13.41
1259090,1,1591,"GAAPRIVIER","HOLOOG (64812015)",NA,-27.43333333,17.96666667,2510,900,1979,2018,40,5.250051878,NA,NA,NA,NA,1979,2018,40,"0.051","0.001608336","0.640771315",10.77
1259100,1,1591,"FISH","AI-AIS (64812014)",NA,-27.91666667,17.5,63300,243.6,1975,2019,45,1.908682635,NA,NA,NA,NA,1975,2019,45,"7.36","0.23210496","3.666745024",1.63
1259101,1,1591,"FISH","SEEHEIM (64812008)",NA,-26.8,17.78333333,46400,700,1961,2019,59,3.642800578,NA,NA,NA,NA,1961,2019,59,"9.653","0.304417008","6.560711379",4.67
1259102,1,1591,"FISH","TSES (64812009)",NA,-25.9,17.96666667,37600,930,1975,2019,45,0.024595708,NA,NA,NA,NA,1975,2019,45,"7.24","0.22832064","6.072357447",0.61
1259103,1,1591,"FISH","GRASS (64812001)",NA,-24.167,17.35,9170,1210,1970,2020,51,18.94244369,NA,NA,NA,NA,1970,2020,51,"3.929","0.123904944","13.51198953",25.2
1259104,1,1591,"FISH","DIRICHAS (64812003)",NA,-24.26666667,17.06666667,2830,1270,1976,2020,45,3.972517177,NA,NA,NA,NA,1976,2020,45,"1.389","0.043803504","15.47826996",7.72
1259110,1,1591,"LOWENRIVIER","ALTDORN (64812011)",NA,-26.8,18.21666667,7000,800,1975,2019,45,5.669202944,NA,NA,NA,NA,1975,2019,45,"2.237","0.070546032","10.07800457",8.74
1259111,1,1591,"LOWENRIVIER","AIKANES (648120210)",NA,-26.867,18.1,8030,760,1970,1981,12,0.484076433,NA,NA,NA,NA,1970,1981,12,"3.229","0.101829744","12.68116364",94.92
1259112,1,1591,"LOWENRIVIER","GEDULD (64812012)",NA,-26.76666667,18.46666667,3200,850,1976,2019,44,4.1851736,NA,NA,NA,NA,1976,2019,44,"0.694","0.021885984","6.83937",6.5
1259150,1,1591,"ORANGE RIVER","SEAKA BRIDGE (66819303)","LS",-30.363333,27.575,19756,1400,1975,1989,15,18.72777558,1972,1984,13,0,1972,1989,18,"111.387","3.512700432","177.8042332",73.98
1259151,1,1591,"ORANGE RIVER","WHITEHALL (66819304)","LS",-30.063333,28.508333,10774,-999,1980,1990,11,0,NA,NA,NA,NA,1980,1990,11,"70.787","2.232338832","207.1968472",75.61
1259152,1,1591,"ORANGE RIVER","KOMA-KOMA (66819305)","LS",-29.59,28.713333,7952,-999,1980,1990,11,25.02738226,NA,NA,NA,NA,1980,1990,11,"38.753","1.222114608","153.6864447",84.35
1259201,1,1591,"HUDUP","BRECKHORN (64812007)",NA,-24.81666667,17.16666667,4780,1290,1978,2017,40,7.314372708,NA,NA,NA,NA,1978,2017,40,"0.453","0.014285808","2.988662762",14.43
1259220,1,1591,"MOHOKARE","MOHLOKAQALA (66818039)","LS",-29,27.7,5630,1510,1984,1991,8,37.37081439,1970,1984,15,0.555555556,1970,1991,22,"15.492","0.488555712","86.7772135",76.22
1259320,1,1591,"MADIBAMATSO RIVER","PARAY (66819308)","LS",-29.483333,28.656667,3236,-999,1980,1989,10,2.007909948,NA,NA,NA,NA,1980,1989,10,"22.699","0.715835664","221.2100321",79.27
1259350,1,1591,"AUOB","GOCHAS",NA,-25.01666667,18.88333333,19600,1070,1973,2020,48,5.249748178,NA,NA,NA,NA,1973,2020,48,"0.158","0.004982688","0.254218776",6.3
1259400,1,1591,"KONKIEP","BETHANIEN (64812013)",NA,-26.43333333,17.11666667,4140,1030,1973,2019,47,11.73818863,NA,NA,NA,NA,1973,2019,47,"0.21","0.00662256","1.599652174",15.24
1259440,1,1591,"WIT-NOSSOB","AMASIB (64813203)",NA,-23.06666667,18.63333333,9250,1280,1973,2019,47,12.50224323,NA,NA,NA,NA,1973,2019,47,"0.021","0.000662256","0.071595243",17.07
1259450,1,1591,"SWART-NOSSOB","MENTZ (64813202)",NA,-23.11666667,18.68333333,8160,1260,1973,2019,47,13.48735004,NA,NA,NA,NA,1973,2019,47,"0.04","0.00126144","0.154588235",18.09
1259451,1,1591,"SWART-NOSSOB","HENOPSRUS (64813201)",NA,-22.13333333,18.81666667,4530,1510,1970,2020,51,5.470375643,NA,NA,NA,NA,1970,2020,51,"0.152","0.004793472","1.058161589",9.55
1269400,1,1691,"SIMIYU","NDAGALU","TZ",-2.64,33.54,6093,-999,NA,NA,NA,NA,1971,1979,9,4.62962963,1971,1979,9,"14.038","0.442702368","72.65753619",97.97
1269600,1,1691,"GURUMETI","MUSOMA ROAD (55116003)","TZ",-2.061111,33.944444,13233,-999,NA,NA,NA,NA,1970,1979,10,7.5,1970,1979,10,"11.377","0.358785072","27.11290501",97.56
1271500,1,1711,"MARA","MARA MINES","TZ",-1.65,34.56,15000,-999,NA,NA,NA,NA,1970,1979,10,12.5,1970,1979,10,"26.657","0.840655152","56.0436768",98.98
1286400,1,1861,"LITTLE RUAHA","IHIMBU (55232321)","TZ",-7.883333,35.8,2843,1550,1957,1987,31,4.589481307,1978,1980,3,5.555555556,1957,1987,31,"18.325","0.5778972","203.2702075",82.11
1286401,1,1861,"LITTLE RUAHA","IRINGA NDIUKA (55232302)","TZ",-7.783333,35.716667,3281,-999,1954,1985,32,6.873254662,NA,NA,NA,NA,1954,1985,32,"20.297","0.640086192","195.088751",88.62
1286600,1,1861,"LUKOSE","MTANDIKA (55232437)","TZ",-7.566667,36.433333,3363,1210,1957,1987,31,3.307981307,1978,1980,3,0,1957,1987,31,"26.594","0.838668384","249.3810241",82.11
1286660,1,1861,"GREAT RUAHA RIVER","MTERA","TZ",-7.92,36.98,67950,680,1954,1979,26,4.247440645,1955,1979,25,3,1954,1979,26,"123.665","3.89989944","57.39366358",97.56
1286700,1,1861,"KILOMBERO","SWERO","TZ",-8.2,37,33400,245,1957,1981,25,16.72160964,1957,1981,25,13.14878893,1957,1981,25,"471.909","14.88212222","445.5725217",95.53
1287800,1,1871,"BUBU","BAHI","TZ",-5.97,35.3,11400,860,NA,NA,NA,NA,1960,1984,25,1.006711409,1960,1984,25,"5.247","0.165469392","14.51485895",86.38
1288100,1,1881,"RUVUMA RIVER","MAHINGA (55250007)","TZ",-11.216667,35.294444,4903,-999,1971,1985,15,4.653546535,NA,NA,NA,NA,1971,1985,15,"49.465","1.55992824","318.1579115",85.77
1289050,1,1895,"MKOMAZI","GOMBA","TZ",-5.02,38.27,3340,380,1978,1979,2,7.945205479,1978,1979,2,8.333333333,1978,1979,2,"18.801","0.592908336","177.5174659",97.97
1289150,1,1890,"LUKULEDI RIVER","MTUA (55244004)","TZ",-10.28,39.425278,4302,-999,1973,1982,10,28.84961055,NA,NA,NA,NA,1973,1982,10,"1.598","0.050394528","11.71420921",97.97
1289450,1,1896,"RUVU RIVER","MOROGORO ROAD BRIDGE (55223108)","TZ",-6.688889,38.698611,15916,15,1958,1989,32,6.830947635,1959,1978,20,1.304347826,1958,1989,32,"58.06","1.83098016","115.0402212",83.33
1289451,1,1896,"RUVU RIVER","MIKULA (55223110)","TZ",-7.3,38.166667,6472,-999,1966,1989,24,14.86034853,NA,NA,NA,NA,1966,1989,24,"45.351","1.430189136","220.9810161",88.01
1290910,1,1901,"SONGWE RIVER","IGALULA (55131017)","TZ",-8.6,33.116667,2693,-999,1974,1979,6,12.27892875,NA,NA,NA,NA,1974,1979,6,"14.495","0.45711432","169.741671",99.19
1291100,1,1911,"ZAMBEZI RIVER","KATIMA MULILO (64370001)",NA,-17.46666667,24.3,334000,940,1942,2021,80,12.79305052,NA,NA,NA,NA,1942,2021,80,"1214.422","38.29801219","114.6647072",0.2
1291200,1,1911,"KWANDO","KONGOLA",NA,-17.68333333,23.26666667,170000,980,1969,2020,52,15.57059961,NA,NA,NA,NA,1969,2020,52,"33.881","1.068471216","6.2851248",13.41
1293310,1,1931,"RUTUKIRA RIVER","NEW ROAD BRIDGE (55312214)","TZ",-10.301111,35.141667,5772,-999,1976,1982,7,29.36851211,NA,NA,NA,NA,1976,1982,7,"72.797","2.295726192","397.7349605",94.92
1308600,1,1081,"MOULOUYA, OUED","DAR EL CAID","MA",34.24,-3.32,24422,325,NA,NA,NA,NA,1957,1988,32,1.305483029,1957,1988,32,"20.19","0.63671184","26.07124068",75.61
1309500,1,1090,"BOU REGREG, OUED","LALLA CHAFIA","MA",33.7,-6.54,3230,180,NA,NA,NA,NA,1980,1984,5,0,1980,1984,5,"2.161","0.068149296","21.09885325",88.62
1309600,1,1090,"OUM ER RBI', OUED","DECHRA EL OUED","MA",32.68,-5.9,3330,591,NA,NA,NA,NA,1953,1989,37,0.938967136,1953,1989,37,"31.224","0.984680064","295.6997189",76.02
1309700,1,1091,"SBOU, OUED","AZIB SOLTANE","MA",34.28,-5.43,17250,70,NA,NA,NA,NA,1959,1989,31,0,1959,1989,31,"56.658","1.786766688","103.5806776",75.41
1309720,1,1091,"OUERGHA, OUED","M'JARA","MA",34.59,-5.25,6190,85,1976,1990,15,0.163265306,1951,1990,40,1.084598698,1951,1990,40,"66.526","2.097963936","338.927938",72.97
1309750,1,1091,"OUERGHA, OUED","OURTZAGH","MA",34.62,-5.01,4404,140,NA,NA,NA,NA,1951,1989,39,0.222717149,1951,1989,39,"60.121","1.895975856","430.5122289",75.61
1309800,1,1091,"SBOU, OUED","AIN TIMEDRINE","MA",33.75,-4.53,4392,645,NA,NA,NA,NA,1965,1984,20,0,1965,1984,20,"18.295","0.57695112","131.3640984",86.18
1309810,1,1091,"MDAZ, OUED","PONT DU MDEZ","MA",33.67,-4.5,3435,725,1956,1990,35,0.647275707,1956,1990,35,0.498753117,1956,1990,35,"6.257","0.197320752","57.44417817",72.97
1320100,1,1201,"MANO RIVER","MANO KONGO","LR",7.328,-11.143,5514,-999,2015,2021,7,0,NA,NA,NA,NA,2015,2021,7,"205.067","6.466992912","1172.831504",90.24
1321880,1,1211,"LOFA RIVER","LOFA BRIDGE","LR",7.067,-10.88,8194,85,2012,2021,10,0,NA,NA,NA,NA,2012,2021,10,"253.468","7.993366848","975.5146263",81.71
1322840,1,1221,"SAINT PAUL RIVER","PIATTA","LR",7.202586,-9.818731,13734,207,2013,2021,9,2.224469161,NA,NA,NA,NA,2013,2021,9,"366.898","11.57049533","842.4708991",84.35
1322880,1,1221,"SAINT PAUL RIVER","HAINDI","LR",6.90211,-10.36175,18276,130,2012,2021,10,0,NA,NA,NA,NA,2012,2021,10,"489.19","15.42709584","844.1177413",81.3
1323550,1,1231,"SAINT JOHN RIVER","FRANK DIGGS","LR",6.466,-9.526,10862,170,2013,2021,9,0.13418316,NA,NA,NA,NA,2013,2021,9,"260.777","8.223863472","757.1223966",83.74
1323580,1,1231,"SAINT JOHN RIVER","MT. FINLAY","LR",6.084,-9.87,15723,65,2013,2021,9,2.580645161,NA,NA,NA,NA,2013,2021,9,"391.496","12.34621786","785.2329616",84.76
1324580,1,1241,"CESTOS RIVER","ITI","LR",5.617,-9.319,11585,170,2014,2021,8,7.338740827,NA,NA,NA,NA,2014,2021,8,"291.782","9.201637152","794.2716575",88.62
1335014,1,1351,"BENUE RIVER","RIAO","CM",9.05,13.68,30650,186,NA,NA,NA,NA,1950,1980,31,9.315068493,1950,1980,31,"241.201","7.606514736","248.1734008",96.54
1335181,1,1351,"KEBI, MAYO","COSSI","CM",9.62,13.87,25000,195,NA,NA,NA,NA,1955,1979,25,0,1955,1979,25,"97.105","3.06230328","122.4921312",97.56
1335241,1,1351,"REY, MAYO","TCHOLLIRE","CM",8.4,14.25,5240,270,NA,NA,NA,NA,1975,1979,5,0,1975,1979,5,"49.341","1.556017776","296.9499573",97.56
1335381,1,1351,"LOUTI, MAYO","FIGUIL","CM",9.77,13.93,5550,242,NA,NA,NA,NA,1974,1979,6,0,1974,1979,6,"30.502","0.961911072","173.3173103",97.76
1335500,1,1351,"BENUE RIVER","GAROUA","CM",9.3,13.38,64000,174,NA,NA,NA,NA,1930,1980,51,25.45454545,1930,1980,51,"353.787","11.15702683","174.3285443",95.73
1336500,1,1361,"CROSS RIVER","MAMFE","CM",5.75,9.32,6810,44,NA,NA,NA,NA,1967,1979,13,1.307189542,1967,1979,13,"528.615","16.67040264","2447.929903",97.56
1338050,1,1381,"SANAGA","EDEA","CM",3.77,10.07,131520,12,NA,NA,NA,NA,1943,1980,38,0,1943,1980,38,"1991.645","62.80851672","477.5586734",96.95
1338201,1,1381,"LOM","BETARE-OYA","CM",5.92,14.13,11100,662,NA,NA,NA,NA,1951,1980,30,1.680672269,1951,1980,30,"177.329","5.592247344","503.806067",95.12
1338252,1,1381,"MBAM","MANTOUM","CM",5.62,11.18,14700,660,NA,NA,NA,NA,1965,1980,16,0.529100529,1965,1980,16,"321.738","10.14632957","690.2265012",95.33
1338271,1,1381,"DJEKE","NGONGON","CM",4.8,12,3720,560,NA,NA,NA,NA,1968,1980,13,4.545454545,1968,1980,13,"36.818","1.161092448","312.1216258",95.12
1338300,1,1381,"MBAM","GOURA","CM",4.57,11.37,42300,396,NA,NA,NA,NA,1951,1980,30,0.574712644,1951,1980,30,"709.251","22.36693954","528.7692562",96.95
1338400,1,1381,"SANAGA","NACHTIGAL","CM",4.35,11.63,76000,426,NA,NA,NA,NA,1951,1980,30,0,1951,1980,30,"1075.476","33.91621114","446.265936",96.95
1338401,1,1381,"MABE","MAGBA","CM",5.92,12.67,4020,684,NA,NA,NA,NA,1952,1980,29,0,1952,1980,29,"95.929","3.025216944","752.5415284",95.12
1338600,1,1381,"DJEREM","MBAKAOU","CM",6.33,12.82,20390,826,NA,NA,NA,NA,1959,1980,22,0.396825397,1959,1980,22,"386.52","12.18929472","597.8074899",96.95
1339500,1,1391,"NYONG","MBALMAYO","CM",3.52,11.5,13555,634,NA,NA,NA,NA,1951,1979,29,0,1951,1979,29,"149.754","4.722642144","348.4059125",97.56
1340500,1,1401,"NTEM","NGOAZIK","CM",2.3,11.3,18100,500,NA,NA,NA,NA,1953,1979,27,0,1953,1979,27,"278.261","8.775238896","484.8198285",97.56
1348100,1,1481,"DJA","SOMALOMO","CM",3.38,12.77,5150,603,NA,NA,NA,NA,1955,1980,26,0,1955,1980,26,"65.6","2.0687616","401.7012816",95.12
1348151,1,1481,"KADEI","BATOURI","CM",4.23,14.32,8970,588,NA,NA,NA,NA,1954,1980,27,0,1954,1980,27,"119.302","3.762307872","419.4323157",95.12
1348152,1,1481,"KADEI","PANA","CM",4.2,14.68,20370,570,NA,NA,NA,NA,1965,1980,16,8.854166667,1965,1980,16,"239.984","7.568135424","371.5334032",95.12
1348351,1,1481,"BOUMBA","BIWALA","CM",3.22,11.92,10340,467,NA,NA,NA,NA,1965,1980,16,15.34391534,1965,1980,16,"105.318","3.321308448","321.2097145",95.12
1357100,1,1571,"OKAVANGO RIVER","MOHEMBO/MTAEMBO (67932112)","BW",-18.283333,21.8,410000,1000,1974,2001,28,9.11469234,1933,2000,68,0,1933,2001,69,"256.494","8.088794784","19.72876777",46.14
1357600,1,1571,"NATA","OLD BRIDGE (67921013)","BW",-20.233333,26.166667,6543,-999,1970,1991,22,4.44589309,NA,NA,NA,NA,1970,1991,22,"4.172","0.131568192","20.10823659",73.58
1362100,1,1621,"NILE RIVER","EL EKHSASE","EG",29.7,31.28,2900000,20,NA,NA,NA,NA,1973,1984,12,0,1973,1984,12,"1253.184","39.52041062","13.6277278",85.37
1389090,1,1893,"MANGOKY","BEVOAY","MG",-21.83,43.87,53225,-999,NA,NA,NA,NA,1964,1983,20,31.57894737,1964,1983,20,"595.294","18.77319158","352.7137921",95.12
1389200,1,1890,"MORONDAVA","DABARA","MG",-20.55,44.28,4650,-999,NA,NA,NA,NA,1951,1984,34,54.35897436,1951,1984,34,"45.408","1.431986688","307.9541265",94.31
1389230,1,1898,"TSIRIBIHINA","BETOMBA","MG",-19.72,44.96,45000,-999,NA,NA,NA,NA,1958,1983,26,3.322259136,1958,1983,26,"982.18","30.97402848","688.311744",88.82
1389320,1,1890,"MENARANDRA","TRANOROA","MG",-24.7,45.07,5330,-999,NA,NA,NA,NA,1951,1983,33,7.03125,1951,1983,33,"30.328","0.956423808","179.441615",91.67
1389330,1,1898,"MANIA","ANKOTROFOTSY","MG",-19.8,45.53,17990,-999,NA,NA,NA,NA,1980,1983,4,0,1980,1983,4,"486.107","15.32987035","852.1328712",91.87
1389350,1,1898,"MAHAJILO","MIANDRIVAZO","MG",-19.5,45.5,14375,-999,NA,NA,NA,NA,1981,1983,3,0,1981,1983,3,"445.061","14.0354437","976.3786919",95.12
1389490,1,1898,"MANIA","FASIMENA","MG",-20.28,46.82,6675,-999,NA,NA,NA,NA,1956,1988,33,11.45038168,1956,1988,33,"144.531","4.557929616","682.8358975",83.33
1389500,1,1890,"IKOPA","ANTSATRANA","MG",-17.42,46.85,18550,-999,NA,NA,NA,NA,1948,1982,35,3.921568627,1948,1982,35,"432.902","13.65199747","735.956737",93.7
1389550,1,1890,"IKOPA","BEVOMANGA","MG",-18.82,47.32,4151,-999,NA,NA,NA,NA,1949,1979,31,0,1949,1979,31,"79.627","2.511117072","604.9426818",97.97
1389580,1,1890,"ONIVE","TSINJOARIVO","MG",-19.63,47.7,2990,-999,NA,NA,NA,NA,1963,1982,20,4.385964912,1963,1982,20,"73.677","2.323477872","777.0829003",90.65
1389670,1,1890,"BEMARIVO","AMPASIMATERA","MG",-16,47.68,6515,-999,NA,NA,NA,NA,1968,1983,16,16.20111732,1968,1983,16,"341.099","10.75689806","1651.09717",91.87
1389690,1,1890,"MANGORO","MANGORO","MG",-18.85,48.1,3600,-999,NA,NA,NA,NA,1960,1982,23,4.494382022,1960,1982,23,"85.44","2.69443584","748.4544",92.07
1389700,1,1890,"MAEVARANO","AMBODIVOHITRA","MG",-14.6,48.53,2585,-999,NA,NA,NA,NA,1963,1983,21,25.61983471,1963,1983,21,"45.539","1.436117904","555.5581834",90.24
1389750,1,1890,"SAMBIRANO","AMBANJA","MG",-13.75,48.5,2980,-999,NA,NA,NA,NA,1953,1983,31,9.615384615,1953,1983,31,"137.166","4.325666976","1451.566099",88.21
1389760,1,1890,"SOFIA","ANTAFIANTSALANA","MG",-15.5,48.62,4100,-999,NA,NA,NA,NA,1968,1982,15,51.19047619,1968,1982,15,"45.408","1.431986688","349.2650459",91.06
1389800,1,1890,"MAHAVAVY","AMBILOBE","MG",-13.15,49.07,3210,-999,NA,NA,NA,NA,1963,1986,24,14.85507246,1963,1986,24,"154.437","4.870325232","1517.235275",83.33
1389820,1,1890,"IVONDRO","RINGARINGA","MG",-18.18,49.25,2545,-999,NA,NA,NA,NA,1953,1983,31,0,1953,1983,31,"106.259","3.350983824","1316.693055",87.8
1396100,1,1961,"MOTLOUTSE","TOBANE D/S (67536021)","BW",-21.883333,28.016667,11370,-999,1969,1989,21,1.151293512,NA,NA,NA,NA,1969,1989,21,"3.434","0.108294624","9.52459314",74.39
1396101,1,1961,"MOTLOUTSE","TOBANE U/S (67536031)","BW",-21.883333,28.016667,11213,-999,1989,1993,5,0.205338809,NA,NA,NA,NA,1989,1993,5,"3.053","0.096279408","8.586409346",90.45
1396102,1,1961,"MOTLOUTSE","MMADINARE (67536041)","BW",-21.95,27.616667,8980,-999,1988,1993,6,0,NA,NA,NA,NA,1988,1993,6,"1.811","0.057111696","6.35987706",87.8
1396200,1,1961,"LOTSANE","MAUNATLALA (67537021)","BW",-22.566667,27.65,6623,-999,1979,1993,15,20.76652327,NA,NA,NA,NA,1979,1993,15,"1.459","0.046011024","6.947157482",73.98
1396201,1,1961,"LOTSANE","PALAPSE (67537031)","BW",-22.566667,27.65,3507,-999,1971,1993,23,5.861124938,NA,NA,NA,NA,1971,1993,23,"0.591","0.018637776","5.314449957",65.24
1396601,1,1961,"METSEMOTLHABA","MOREMA (67538011)","BW",-24.95,26.066667,4167,-999,1975,1989,15,12.31912397,NA,NA,NA,NA,1975,1989,15,"0.551","0.017376336","4.169987041",79.07
1425350,1,1251,"CAVALLY","TAI","CI",5.85,-7.43,13750,-999,1979,1982,4,50.03422313,1982,1983,2,0,1979,1983,5,"176.229","5.557557744","404.1860177",92.68
1425450,1,1251,"HANA","NIEBE","CI",5.37,-7.31,4200,-999,1979,1993,15,80.0146012,1979,1982,4,50,1979,1993,15,"60.831","1.918366416","456.7539086",92.68
1425500,1,1251,"CAVALLY","TATE","CI",4.38,-7.59,28800,-999,1970,1996,27,12.10707767,1979,1982,4,50,1970,1996,27,"490.747","15.47619739","537.367965",58.54
1426120,1,1261,"BANDAMA BLANC","TAWARA","CI",9.74,-5.62,5400,-999,1979,1982,4,51.8907563,1979,1982,4,51.06382979,1979,1982,4,"16.12","0.50836032","94.1408",95.33
1426140,1,1261,"BOU","BORON","CI",8.79,-5.88,3700,-999,1979,1993,15,81.19232189,1979,1982,4,50,1979,1993,15,"9.141","0.288270576","77.91096649",93.09
1426180,1,1261,"BANDAMA ROUGE","MANKONO","CI",8.1,-6.3,6700,-999,1979,1993,15,80.0146012,1979,1982,4,50,1979,1993,15,"21.579","0.680515344","101.5694543",92.68
1426200,1,1260,"BANDAMA","BAFECAO","CI",6.06,-4.49,59500,-999,1979,1993,15,80.0146012,1979,1982,4,50,1979,1993,15,"122.428","3.860889408","64.88889761",92.68
1426210,1,1260,"BANDAMA","BRIMBO","CI",6,-4.43,60200,-999,1993,1993,1,0,1982,1983,2,0,1982,1993,12,"77.474","2.443220064","40.5850509",92.68
1426250,1,1261,"NZI","ROUTE KATIOLA-DABAKALA","CI",8.24,-4.84,6650,-999,1979,1993,15,80.0146012,1979,1982,4,50,1979,1993,15,"13.885","0.43787736","65.84621955",92.68
1426260,1,1261,"NZI","FETEKRO","CI",7.77,-4.68,10300,-999,1979,1993,15,80.03285271,1979,1982,4,50,1979,1993,15,"19.572","0.617222592","59.9245235",92.68
1426300,1,1261,"BANDAMA ROUGE","BOUAFLE","CI",6.96,-5.76,19800,-999,1979,1993,15,80.03285271,1982,1983,2,0,1979,1993,15,"57.907","1.826155152","92.23005818",90.24
1426320,1,1261,"KAN","DIMBOKRO","CI",6.63,-4.79,4700,-999,1979,1993,15,80.27012229,1979,1982,4,50,1979,1993,15,"6.059","0.191076624","40.65460085",92.68
1426340,1,1261,"BANDAMA BLANC","MARABADIASSA","CI",8.11,-5.41,22000,-999,1979,1982,4,50.1026694,1979,1982,4,50,1979,1982,4,"82.307","2.595633552","117.9833433",95.12
1426350,1,1261,"NZI","ZIENOA","CI",6,-4.82,35000,-999,1979,1993,15,81.57796799,1982,1983,2,0,1979,1993,15,"22.453","0.708077808","20.23079451",91.06
1426380,1,1261,"BANDAMA","TIASSALE","CI",5.88,-4.75,95500,-999,1970,1996,27,1.399310485,1954,1983,30,40,1954,1996,43,"175.339","5.529490704","57.90042622",56.71
1426600,1,1260,"AGNEBI","AGBOVILLE","CI",5.97,-4.21,4600,-999,1979,1993,15,80.0146012,1979,1982,4,50,1979,1993,15,"5.161","0.162757296","35.38202087",92.68
1427130,1,1271,"TIENBA","DIOULATIEDOUGOU","CI",9.02,-7.24,2790,-999,1979,1993,15,80.32216731,1979,1982,4,50,1979,1993,15,"16.3","0.5140368","184.2425806",92.68
1427150,1,1271,"BOA","VIALADOUGOU","CI",8.37,-7.2,5800,-999,1979,1993,15,80.0146012,1979,1982,4,50,1979,1993,15,"33.323","1.050874128","181.1851945",92.68
1427160,1,1271,"SASSANDRA","N'GOLODOUGOU","CI",8.38,-7.7,5200,-999,1979,1982,4,50.17111567,1979,1982,4,50,1979,1982,4,"70.976","2.238299136","430.4421415",95.12
1427200,1,1271,"SASSANDRA","DABALA","CI",8.4,-7.13,16800,-999,1979,1993,15,80.03285271,1979,1982,4,50,1979,1993,15,"120.677","3.805669872","226.5279686",92.68
1427250,1,1271,"BAFING","BADALA","CI",7.85,-7.54,6300,-999,1979,1982,4,50.1026694,1979,1982,4,50,1979,1982,4,"69.826","2.202032736","349.5290057",95.12
1427350,1,1271,"SASSANDRA","SEMIEN","CI",7.69,-7.06,28800,-999,1979,1993,15,80.0146012,1982,1983,2,0,1979,1993,15,"218.003","6.874942608","238.713285",90.24
1427400,1,1271,"NZO","GUIGLO","CI",6.54,-7.48,6400,-999,1979,1979,1,0,1979,1979,1,0,1979,1979,1,"87.362","2.755048032","430.476255",97.56
1427450,1,1271,"SASSANDRA","GUESSABO","CI",6.74,-7,35000,-999,1979,1979,1,0,1979,1979,1,0,1979,1979,1,"297.436","9.379941696","267.9983342",97.56
1427500,1,1271,"SASSANDRA","SOUBRE","CI",5.76,-6.6,62000,-999,1970,1996,27,9.328736565,1979,1982,4,50,1970,1996,27,"321.64","10.14323904","163.6006297",57.32
1427600,1,1271,"DAVO","DAKPADOU","CI",5.26,-6.06,6600,-999,1979,1993,15,80.14236174,1979,1982,4,50,1979,1993,15,"33.263","1.048981968","158.9366618",92.68
1428200,1,1281,"KOMOE","KAFOLO","CI",9.59,-4.29,21300,-999,1979,1993,15,80.14236174,1979,1982,4,50,1979,1993,15,"49.3","1.5547248","72.99177465",92.68
1428250,1,1281,"IRINGOU","TEHINI","CI",9.67,-4.12,2600,-999,1979,1982,4,50.03422313,1979,1982,4,50,1979,1982,4,"3.853","0.121508208","46.73392615",95.12
1428300,1,1281,"KOMOE","SEREBOU","CI",7.95,-3.94,48700,-999,1979,1993,15,82.89833911,1982,1983,2,5,1979,1993,15,"129.823","4.094098128","84.06772337",91.46
1428400,1,1281,"KOMOE","ANIASSUE","CI",6.62,-3.72,67400,-999,1979,1994,16,1.728268309,1980,1994,15,4.444444444,1979,1994,16,"114.79","3.62001744","53.70945757",61.79
1428500,1,1281,"KOMOE","MBASSO","CI",6.29,-3.49,69900,-999,1970,1996,27,8.233624011,1979,1982,4,50,1970,1996,27,"128.989","4.067797104","58.19452223",61.79
1431300,1,1311,"BLACK VOLTA","VONKORO","CI",9.19,-2.71,111500,-999,1979,1993,15,80.81766746,1979,1982,4,50,1979,1993,15,"115.275","3.6353124","32.60369865",93.09
1434300,1,1341,"BAOULE","DJIRILA","CI",10.06,-7.58,3970,-999,1962,1993,32,54.46202255,1963,1977,15,6.547619048,1962,1993,32,"39.412","1.242896832","313.0722499",97.56
1434700,1,1341,"MAHANDIABANI","DEBETE","CI",9.56,-6.67,5550,-999,1975,1993,19,61.92878338,1975,1982,8,19.1011236,1975,1993,19,"14.457","0.455915952","82.14701838",90.45
1434810,1,1341,"BAGOE","KOUTO AVAL","CI",9.85,-6.36,4700,-999,1960,1993,34,36.87260263,1960,1980,21,1.214574899,1960,1993,34,"34.911","1.100953296","234.2453821",92.68
1434850,1,1341,"BAGOE","PAPARA","CI",10.63,-6.22,8900,-999,1976,1993,18,64.47148289,1976,1982,7,16.66666667,1976,1993,18,"34.307","1.081905552","121.5624216",91.26
1444100,1,1441,"NYANGA","DONGUILA","CG",-2.87,11.97,5800,200,1978,1980,3,1.368613139,1973,1983,11,0,1973,1983,11,"172.958","5.454403488","940.4143945",87.8
1445050,1,1451,"NIARI","KAYES","CG",-4.17,13.3,17190,115,NA,NA,NA,NA,1969,1983,15,0,1969,1983,15,"315.094","9.936804384","578.0572649",87.8
1445100,1,1451,"KOUILOU","SOUNDA","CG",-4.1,12.07,55010,8,NA,NA,NA,NA,1956,1982,27,13.52201258,1956,1982,27,"874.956","27.59261242","501.5926634",90.45
1445490,1,1451,"NIARI","LOUDIMA","CG",-4.12,13.08,23385,105,NA,NA,NA,NA,1969,1983,15,0,1969,1983,15,"378.593","11.93930885","510.5541521",87.8
1445500,1,1451,"LOUDIMA","IFAC","CG",-4.13,13.07,3990,115,1978,1980,3,0.364963504,1973,1983,11,0,1973,1983,11,"24.969","0.787422384","197.3489684",87.8
1445600,1,1451,"NIARI","SAFEL","CG",-4.25,14.05,8620,150,NA,NA,NA,NA,1969,1983,15,7.777777778,1969,1983,15,"164.905","5.20044408","603.2997773",88.21
1445700,1,1451,"BOUENZA","MIAMBOU","CG",-3.88,13.72,4920,400,1978,1980,3,0.638686131,1978,1980,3,0,1978,1980,3,"102.716","3.239251776","658.3845073",95.12
1447100,1,1471,"LOUFOULAKARI","KIMPANZOU","CG",-4.6,14.93,2980,380,1978,1980,3,0.364963504,1973,1983,11,0,1973,1983,11,"40.02","1.26207072","423.5136644",87.8
1447150,1,1471,"CONGO RIVER","BRAZZAVILLE","CG",-4.27,15.32,3475000,270,NA,NA,NA,NA,1971,1983,13,0,1971,1983,13,"41125.969","1296.948558","373.2226067",87.8
1447300,1,1471,"LEFINI","BWAMBE","CG",-2.91,15.65,13500,310,1978,1980,3,0.547445255,1978,1980,3,0,1978,1980,3,"415.974","13.11815606","971.715264",95.12
1447400,1,1471,"NKENI","GAMBOMA","CG",-1.9,15.85,6200,304,NA,NA,NA,NA,1969,1980,12,13.88888889,1969,1980,12,"209.379","6.602976144","1064.996152",98.17
1447600,1,1471,"MAMBILI","YENGO","CG",0.38,15.48,12000,335,1978,1980,3,0.091240876,1978,1980,3,0,1978,1980,3,"193.81","6.11199216","509.33268",95.12
1448100,1,1481,"SANGHA","OUESSO","CG",1.62,16.05,158350,236,NA,NA,NA,NA,1947,1983,37,1.154734411,1947,1983,37,"1665.056","52.50920602","331.6021851",87.8
1448500,1,1481,"LIKOUALA AUX HERBES","EPENA","CG",1.35,17.48,11300,-999,1978,1980,3,0.273722628,1978,1980,3,0,1978,1980,3,"83.204","2.623921344","232.2054287",95.12
1468100,1,1681,"MUZIZI","HOIMA-FORT PORTAL ROAD","UG",0.87,30.73,2603,1137,NA,NA,NA,NA,1976,1979,4,0,1976,1979,4,"4.003","0.126238608","48.49735229",97.56
1472100,1,1721,"KAFU","KAMPALA-GULU ROAD","UG",1.55,32.05,16150,-999,NA,NA,NA,NA,1976,1979,4,0,1976,1979,4,"15.403","0.485749008","30.07733796",97.56
1472300,1,1721,"VICTORIA NILE","OWEN RESERVOIR","UG",0.47,33.12,269000,-999,NA,NA,NA,NA,1973,1982,10,0,1973,1982,10,"1176.158","37.09131869","137.8859431",90.24
1491200,1,1911,"GWAYI","KAMATIVI G/W","ZW",-18.37,27.05,38600,-999,NA,NA,NA,NA,1955,1984,30,0,1955,1984,30,"23.587","0.743839632","19.27045679",87.4
1491210,1,1911,"GWAYI","DAHLIA CONTROL SECTION (63351138)","ZW",-18.6,27.166667,20371,-999,1966,1990,25,9.867670545,1966,1980,15,8.333333333,1966,1990,25,"6.643","0.209493648","10.28391576",71.34
1491230,1,1911,"BUBI","LUPANE G/W (63351139)","ZW",-18.95,27.766667,4080,-999,1964,1990,27,14.12173547,1966,1980,15,2.259887006,1964,1990,27,"0.595","0.01876392","4.599",72.15
1491250,1,1911,"SHANGANI","SIR G.HUGGINS BRIDGE FLUME","ZW",-18.92,28.87,5900,-999,NA,NA,NA,NA,1960,1980,21,5,1960,1980,21,"4.774","0.150552864","25.51743458",97.56
1491260,1,1911,"GWERU","GWERU RIVER CAUSEWAY (63351113)","ZW",-18.716667,28.8,4201,-999,1952,1989,38,10.38182625,NA,NA,NA,NA,1952,1989,38,"4.359","0.137465424","32.72207189",83.13
1491500,1,1911,"MUNYATI","POWER STATION WEIR","ZW",-18.65,29.78,5890,-999,NA,NA,NA,NA,1950,1980,31,9.756097561,1950,1980,31,"11.042","0.348220512","59.12063022",95.73
1491550,1,1911,"UMSWESWE","CLAW DAM U/S FLUME","ZW",-18.45,29.87,2990,-999,NA,NA,NA,NA,1974,1980,7,0,1974,1980,7,"4.521","0.142574256","47.68369766",95.73
1491580,1,1911,"UMFULI","TWYFORD WEIR","ZW",-18.12,30.22,5180,-999,NA,NA,NA,NA,1950,1979,30,0,1950,1979,30,"15.214","0.479788704","92.62330193",98.17
1491585,1,1911,"MUPFURE","TWYFORD WEIR (63341012)","ZW",-18.116667,30.216667,5307,-999,1950,1990,41,8.062970568,NA,NA,NA,NA,1950,1990,41,"12.678","0.399813408","75.33699039",79.67
1491590,1,1911,"MUNYATI","COPPER QUEEN C/S (63341059)","ZW",-17.5,29.4,37300,-999,1955,1987,33,22.08247775,NA,NA,NA,NA,1955,1987,33,"68.53","2.16116208","57.94000214",87.8
1491600,1,1911,"SEBAKWE","DUTCHMAN'S POOL DAM D/S G/W","ZW",-18.85,29.82,4170,-999,NA,NA,NA,NA,1954,1980,27,0,1954,1980,27,"10.357","0.326618352","78.32574388",95.73
1491601,1,1911,"SEBAKWE","LOWER ZIVAGWE DAM (63341029)","ZW",-18.85,29.816667,4404,-999,1977,1990,14,4.380791912,NA,NA,NA,NA,1977,1990,14,"9.674","0.305079264","69.27322071",72.97
1491610,1,1911,"MUNYATI","DYKE G/W (63341018)","ZW",-18.816667,30.316667,2662,-999,1962,1990,29,0.938691698,1960,1980,21,0.416666667,1960,1990,31,"6.718","0.211858848","79.5863441",71.75
1491680,1,1911,"MUKWADZI","U/S HUNYANI CONFLUENCE","ZW",-17.08,30.3,6110,-999,NA,NA,NA,NA,1971,1980,10,0,1971,1980,10,"9.254","0.291834144","47.76336236",95.73
1491700,1,1911,"HUNYANI","MANGULA MINE WEIR","ZW",-16.95,30.35,7900,-999,NA,NA,NA,NA,1964,1984,21,0,1964,1984,21,"23.238","0.732833568","92.76374278",85.98
1491850,1,1911,"MAZOE","LION'S DEN G/W","ZW",-17.28,31.55,3300,-999,NA,NA,NA,NA,1968,1984,17,0,1968,1984,17,"12.065","0.38048184","115.2975273",85.98
1495160,1,1951,"RUNDE","INGESI FLUMES","ZW",-20.62,30.45,5390,-999,NA,NA,NA,NA,1970,1980,11,2.5,1970,1980,11,"16.094","0.507540384","94.16333655",95.73
1495165,1,1951,"RUNDE","RUNDE U/S INGESI FLUMES (63423133)","ZW",-20.616667,30.45,3710,-999,1971,1990,20,22.21415081,NA,NA,NA,NA,1971,1990,20,"8.271","0.260834256","70.30572938",71.34
1495170,1,1951,"TOKWE","AUSTRAL DAM SPILLWAY","ZW",-20.13,30.45,4250,-999,NA,NA,NA,NA,1973,1980,8,0,1973,1980,8,"23.969","0.755886384","177.8556198",95.73
1495200,1,1951,"RUNDE","TOKWE CONFLUENCE U/S C/S","ZW",-21.17,31.2,17100,-999,NA,NA,NA,NA,1962,1980,19,0,1962,1980,19,"48.502","1.529559072","89.44789895",95.73
1495220,1,1951,"TOKWE","LUNDI CONFLUENCE U/S C/S","ZW",-21.13,31.27,7950,-999,NA,NA,NA,NA,1962,1980,19,0,1962,1980,19,"25.316","0.798365376","100.4233177",95.73
1495240,1,1951,"RUNDE","TOKWE CONFLUENCE D/S C/S","ZW",-21.13,31.27,23000,-999,NA,NA,NA,NA,1962,1980,19,0,1962,1980,19,"66.934","2.110830624","91.77524452",95.73
1495370,1,1951,"NGEZI","SIVUMBA FLUME (63423551)","ZW",-20.566667,30.283333,4157,-999,1975,1989,15,21.52913571,NA,NA,NA,NA,1975,1989,15,"5.377","0.169569072","40.79121289",78.25
1495700,1,1951,"SAVE, RIO","CONDO D/S G/W (63422121)","ZW",-19.216667,32.016667,11174,-999,1956,1990,35,6.498631019,1955,1984,30,4.597701149,1955,1990,36,"41.794","1.318015584","117.9537841",74.59
1495720,1,1951,"MACHEKE","CONDO U/S G/W (63422219)","ZW",-18.916667,31.95,3383,-999,1954,1990,37,28.9906998,1954,1980,27,8.360128617,1954,1990,37,"12.346","0.389343456","115.0882223",71.34
1495801,1,1951,"ODZI","ODZI GORGE G/W (63422330)","ZW",-19.766667,32.4,7265,-999,1981,1990,10,25.34225738,NA,NA,NA,NA,1981,1990,10,"23.076","0.727724736","100.1685803",84.55
1496181,1,1961,"THULI","THULI GORGE G/W (63535231)","ZW",-21.083333,28.833333,4090,-999,1958,1990,33,13.47535934,NA,NA,NA,NA,1958,1990,33,"6.047","0.190698192","46.62547482",75.2
1496200,1,1961,"THULI","NTALALI CAUSEWAY","ZW",-21.32,28.95,5880,-999,NA,NA,NA,NA,1966,1980,15,0,1966,1980,15,"12.366","0.389974176","66.32213878",95.73
1496320,1,1961,"UMZINGWANI","GLASS BLOCK G/W (63534120)","ZW",-20.583333,29.183333,2504,-999,NA,NA,NA,NA,1953,1980,28,3.703703704,1953,1980,28,"4.064","0.128162304","51.18302875",98.17
1496321,1,1961,"UMZINGWANI","DODDIEBURN RANCH (63534162)","ZW",-21.416667,29.4,9718,-999,1966,1990,25,29.86588921,NA,NA,NA,NA,1966,1990,25,"15.063","0.475026768","48.88112451",82.93
1496351,1,1961,"INSIZA","SILALABUHWA DAM D/S G/W (63534265)","ZW",-20.783333,29.366667,2963,-999,1966,1990,25,20.46543463,NA,NA,NA,NA,1966,1990,25,"2.697","0.085052592","28.70489099",82.52
1496500,1,1961,"LIMPOPO RIVER","BEITBRIDGE PUMPSTATION C/S (63533035)","ZW",-22.216667,29.983333,208784,-999,1959,1990,32,23.28888104,1959,1980,22,2.777777778,1959,1990,32,"66.551","2.098752336","10.05226615",78.05
1512100,1,1121,"GORGOL EL ABIOD","AGUEILLAT","MR",16.92,-12.38,8370,-999,1978,1985,8,12.62833676,1978,1985,8,12.5,1978,1985,8,"2.016","0.063576576","7.595767742",85.37
1512200,1,1121,"GARFA, OUED","GHORFA AVAL","MR",15.53,-12.7,5050,-999,1979,1985,7,31.2084474,1979,1985,7,30.95238095,1979,1985,7,"11.974","0.377612064","74.77466614",88.21
1526200,1,1260,"ANKOBRA","PRESTEA","GH",5.45,-2.1167,4268,19.65,1997,2007,11,16.56692057,1976,1978,3,0,1976,2007,32,"11.647","0.367299792","86.05899531",79.67
1526300,1,1262,"PRA","DABOASI","GH",5.1667,-1.6333,22714,-0.07,1979,2006,28,32.71731691,1965,1978,14,0,1965,2006,42,"190.359","6.003161424","264.29345",59.96
1531050,1,1311,"BLACK VOLTA","LAWRA","GH",10.6333,-2.9167,93820,224.19,1975,2007,33,37.65216651,1951,1974,24,0,1951,2007,57,"59.363","1.872071568","19.95386451",62.4
1531100,1,1311,"BLACK VOLTA","BAMBOI","GH",8.15,-2.0333,134200,34.75,1975,2007,33,56.51247977,1950,1974,25,0,1950,2007,58,"308.667","9.734122512","72.53444495",72.76
1531300,1,1311,"PRU","PRANG","GH",7.9833,-0.8833,6355,41.43,1998,2007,10,2.199606041,1957,1967,11,0,1957,2007,51,"51.438","1.622148768","255.2555103",80.28
1531420,1,1311,"KULPAWN","YAGABA","GH",10.23,-1.2833,10600,126.3,1975,2007,33,73.28679663,1958,1974,17,3.645833333,1958,2007,50,"16.352","0.515676672","48.64874264",86.79
1531430,1,1311,"SISILI","WIASI","GH",10.33,-1.35,9500,125.51,1975,2007,33,70.1873496,1962,1974,13,0,1962,2007,46,"11.475","0.3618756","38.09216842",83.54
1531450,1,1311,"WHITE VOLTA","NAWUNI","GH",9.7,-1.08,92950,96,1975,2007,33,10.81127096,1953,1974,22,0,1953,2007,55,"243.769","7.687499184","82.705747",41.26
1531550,1,1311,"WHITE VOLTA","PWALAGU","GH",10.5833,-0.85,63350,123,1975,2007,33,57.46571207,1951,1974,24,0,1951,2007,57,"103.985","3.27927096","51.76434033",72.97
1531600,1,1311,"WHITE VOLTA","YARUGU","GH",10.98,-0.4,41550,170,1975,2007,33,69.43119891,1966,1974,9,0,1966,2007,42,"71.814","2.264726304","54.50604823",83.33
1531650,1,1311,"RED VOLTA","NANGODI","GH",10.8667,-0.6167,11570,184.12,1975,2007,33,88.62161461,1958,1974,17,0,1958,2007,50,"15.351","0.484109136","41.84175765",93.7
1531680,1,1311,"DAKA","EKUMDIPE","GH",8.47,-0.22,6810,-999,1975,1996,22,66.52526032,1963,1974,12,0,1963,1996,34,"23.54","0.74235744","109.0099031",84.35
1531700,1,1311,"VOLTA","SENCHI(HALCROW)","GH",6.2,0.1,394100,5,NA,NA,NA,NA,1936,1984,49,3.242320819,1936,1984,49,"1091.454","34.42009334","87.33847588",85.37
1531800,1,1311,"OTI","SABARI","GH",9.28,0.23,58670,82.55,1995,2007,13,13.61702128,1959,1974,16,0,1959,2007,49,"405.169","12.77740958","217.7843802",77.24
1535100,1,1351,"KABIA","GOUNOU-GAYA","TD",9.69,15.5,3840,-999,1978,1990,13,47.2507415,1978,1990,13,47.22222222,1978,1990,13,"3.664","0.115547904","30.0906",86.18
1537100,1,1371,"CHARI","NDJAMENA(FORT LAMY)","TD",12.12,15.03,6e+05,285,1976,1991,16,19.20924355,1933,1991,59,11.60458453,1933,1991,59,"571.543","18.02418005","30.04030008",76.63
1537130,1,1371,"CHARI","MAILAO","TD",11.58,15.28,5e+05,-999,1983,1986,4,14.32481752,1983,1986,4,11.11111111,1983,1986,4,"94.123","2.968262928","5.936525856",93.5
1537150,1,1371,"LOGONE","BONGOR","TD",10.27,15.42,73700,321,1983,1986,4,5.644402634,1948,1986,39,26.04856512,1948,1986,39,"190.074","5.994173664","81.33207142",93.09
1537170,1,1371,"LIM","OULI BANGALA","TD",7.83,15.83,4360,445,1978,1990,13,27.53821583,1978,1990,13,27.77777778,1978,1990,13,"42.685","1.34611416","308.7417798",79.88
1537180,1,1371,"LOGONE","MOUNDOU","TD",8.53,16.07,33970,391,1983,1985,3,9.967845659,1935,1985,51,48.01324503,1935,1985,51,"255.605","8.06075928","237.2905293",94.72
1537200,1,1371,"LOGONE","LAI","TD",9.4,16.3,56700,350,1983,1986,4,12.77372263,1948,1986,39,43.95604396,1948,1986,39,"322.086","10.1573041","179.1411657",93.7
1537300,1,1371,"CHARI","BOUSSO","TD",10.48,16.72,450000,325,1984,1985,2,13.35616438,1936,1985,50,50.85910653,1936,1985,50,"845.186","26.6537857","59.23063488",98.58
1537450,1,1371,"OUHAM","MOISSALA","TD",8.33,17.77,67600,518,1983,1984,2,0.862068966,1951,1984,34,29.00763359,1951,1984,34,"504.278","15.90291101","235.2501628",98.58
1537480,1,1371,"OUHAM","MANDA","TD",9.08,18.2,80000,-999,1983,1986,4,5.565693431,1983,1986,4,5.555555556,1983,1986,4,"124.301","3.919956336","48.9994542",93.09
1537500,1,1371,"CHARI","SARH(FORT ARCHAMBAULT)","TD",9.15,18.42,193000,355,1983,1986,4,1.952723535,1938,1986,49,32.24137931,1938,1986,49,"67.521","2.129342256","11.03286143",93.5
1547300,1,1471,"LUKULU","KASAMA/LUWINGU ROAD BRIDGE (60773250)","ZM",-10.1833,30.9667,6418,-999,1970,2005,36,2.361229388,NA,NA,NA,NA,1970,2005,36,"66.729","2.104365744","327.884971",37.8
1547310,1,1471,"LUAPULA","CHEMBE FERRY","ZM",-11.9666,28.75,123072,-999,1956,2005,50,1.364294465,NA,NA,NA,NA,1956,2005,50,"507.452","16.00300627","130.0296271",35.98
1547330,1,1471,"LUONGO","MWENDAKASHIBA","ZM",-10.4666,29.05,4170,-999,1971,2004,34,33.51648352,NA,NA,NA,NA,1971,2004,34,"0.309","0.009744624","2.336840288",68.7
1547350,1,1471,"LWOMBE","CHISHIMBA FALLS","ZM",-10.12,30.95,2549,-999,NA,NA,NA,NA,1980,1984,5,0,1980,1984,5,"29.087","0.917287632","359.8617623",87.8
1547400,1,1471,"CHAMBESHI","OLD PONTOON","ZM",-10.95,31.07,34745,1200,1972,2004,33,16.94605809,1976,1979,4,2.083333333,1972,2004,33,"176.72","5.57304192","160.398386",50.81
1547500,1,1471,"CHAMBESHI","CHANDAWAYAYA","ZM",-9.78,31.7,4628,-999,1978,1981,4,0.091240876,1978,1981,4,0,1978,1981,4,"55.53","1.75119408","378.391115",93.29
1547510,1,1471,"CHAMBESHI","MBESUMA PONTOON (60773245)","ZM",-10,32.166667,13276,-999,1974,2004,31,23.80736852,NA,NA,NA,NA,1974,2004,31,"73.095","2.30512392","173.6309069",56.91
1553100,1,1531,"LUFUBU","KESO FALLS","ZM",-8.7,30.62,4098,-999,1978,1981,4,33.02919708,1978,1981,4,33.33333333,1978,1981,4,"n.a.","n.a.","n.a.",95.73
1563800,1,1631,"BLUE NILE","KESSIE","ET",11.07,38.18,65784,-999,NA,NA,NA,NA,1976,1979,4,0,1976,1979,4,"464.519","14.64907118","222.6844093",97.56
1566100,1,1661,"BARO","GAMBELLA","ET",8.25,34.58,23461,-999,NA,NA,NA,NA,1928,1979,52,55.76923077,1928,1979,52,"36.625","1.155006","49.23089382",97.56
1577100,1,1771,"AWASH WENZ","MELKA KUNTIRE","ET",8.7,38.6,4456,1850,1978,2008,31,29.46215667,1978,1980,3,0,1978,2008,31,"28.581","0.901330416","202.2734327",49.39
1577101,1,1771,"AWASH WENZ","HOMBOLE","ET",8.383333,38.783333,7656,-999,1990,2009,20,0,NA,NA,NA,NA,1990,2009,20,"43.836","1.382412096","180.5658433",51.22
1577102,1,1771,"AWASH WENZ","METAHARA","ET",8.85,39.85,16416,-999,1982,2009,28,4.165444412,NA,NA,NA,NA,1982,2009,28,"33.721","1.063425456","64.77981579",36.38
1577500,1,1771,"KESSEM","AWARA MELKA","ET",9.15,39.93,3135,850,1978,1980,3,0,1978,1980,3,0,1978,1980,3,"14.029","0.442418544","141.1223426",95.12
1577600,1,1771,"AWASH WENZ","AWASH","ET",9.2,40.2,18710,-999,NA,NA,NA,NA,1976,1979,4,0,1976,1979,4,"46.057","1.452453552","77.62979968",97.56
1577601,1,1771,"AWASH WENZ","MELKA SEDI","ET",9.39,40.13,21520,-999,1990,2009,20,0.154559505,NA,NA,NA,NA,1990,2009,20,"53.629","1.691244144","78.5894119",53.25
1577602,1,1771,"AWASH WENZ","ADAITU","ET",11.133333,40.783333,52835,-999,1990,2004,15,5.145195868,NA,NA,NA,NA,1990,2004,15,"62.92","1.98424512","37.55550525",69.11
1577603,1,1771,"AWASH WENZ","TENDAHO","ET",11.683333,40.95,62088,-999,1990,2004,15,14.45581395,NA,NA,NA,NA,1990,2004,15,"69.429","2.189512944","35.26467182",70.33
1577800,1,1771,"MET'I WENZ","MILLE VILLAGE","ET",11.4,40.73,4350,550,1978,1980,3,0,1978,1980,3,0,1978,1980,3,"44.035","1.38868776","319.2385655",95.12
1582700,1,1821,"GIBE WENZ","NEAR ABELTI","ET",8.23,37.58,15746,-999,NA,NA,NA,NA,1976,1979,4,0,1976,1979,4,"195.207","6.156047952","390.9594787",97.56
1591001,1,1911,"ZAMBEZI RIVER","SENANGA (60370001)","ZM",-16.116667,23.25,284538,-999,1947,2004,58,8.395191801,NA,NA,NA,NA,1947,2004,58,"972.622","30.67260739","107.7979299",45.53
1591002,1,1911,"ZAMBEZI RIVER","LUKULU (60370030)","ZM",-14.3833,23.2333,206531,-999,1950,2004,55,12.44123148,NA,NA,NA,NA,1950,2004,55,"772.024","24.34654886","117.8832663",55.28
1591100,1,1911,"MAKONDU","CHIVATA VILLAGE","ZM",-13.3333,23.15,3354,-999,1962,2004,43,23.32229721,1978,1981,4,0,1962,2004,43,"17.415","0.54919944","163.7446154",61.18
1591200,1,1911,"KABOMPO","WATOPA PONTOON (60380050)","ZM",-14.016667,23.6,66667,1075,NA,NA,NA,NA,1976,1979,4,0,1976,1979,4,"339.69","10.71246384","160.6861542",97.56
1591231,1,1911,"KABOMPO","KABOMPO PONTOON (60380051)","ZM",-13.6,24.2166,42740,-999,1990,2005,16,51.04371097,NA,NA,NA,NA,1990,2005,16,"252.187","7.952969232","186.077895",82.11
1591300,1,1911,"KALOMO","KALOMO DAM SITE (60352030)","ZM",-17.216667,26.483333,3038,-999,1969,1983,15,7.816602707,NA,NA,NA,NA,1969,1983,15,"5.454","0.171997344","56.61532061",91.46
1591401,1,1911,"KAFUE","KASAKA (60334977)","ZM",-15.8166,28.2166,153351,-999,1960,2004,45,0.385045336,NA,NA,NA,NA,1960,2004,45,"989.118","31.19282525","203.4080329",37.4
1591402,1,1911,"KAFUE","NYIMBA","ZM",-15.75,27.03,136234,-999,1973,2005,33,47.13049324,NA,NA,NA,NA,1973,2005,33,"194.531","6.134729616","45.03082649",74.39
1591403,1,1911,"KAFUE","ITEZHI-TEZHI","ZM",-15.76666,26.0166,105672,-999,1960,1991,32,0,NA,NA,NA,NA,1960,1991,32,"351.155","11.07402408","104.7962003",68.29
1591404,1,1911,"KAFUE","KAFUE HOOK BRIDGE (60334669)","ZM",-14.93333,25.9166,96239,-999,1973,2005,33,4.423301619,NA,NA,NA,NA,1973,2005,33,"285.309","8.997504624","93.49125224",36.99
1591405,1,1911,"KAFUE","MSWEBI","ZM",-14.4166,27,50479,-999,1953,2005,53,28.05089647,NA,NA,NA,NA,1953,2005,53,"155.038","4.889278368","96.85767087",78.05
1591406,1,1911,"KAFUE","MACHIYA FERRY (60334280)","ZM",-13.65,27.61666,23065,-999,1962,2004,43,12.74541567,NA,NA,NA,NA,1962,2004,43,"137.844","4.347048384","188.4694725",51.22
1591408,1,1911,"KAFUE","LUBUNGU (60334450)","ZM",-14.566667,26.45,55669,-999,1955,1991,37,57.30513415,NA,NA,NA,NA,1955,1991,37,"211.381","6.666111216","119.7454816",84.96
1591435,1,1911,"LUNGA","KELONGWA SCHOOL (60334550)","ZM",-13.7,26.333333,19779,-999,1968,1992,25,8.955053616,NA,NA,NA,NA,1968,1992,25,"109.453","3.451709808","174.5138686",75.61
1591440,1,1911,"LUSWISHI","KANGONDI (60334340)","ZM",-13.833333,27.366667,8849,-999,1971,2005,35,49.97202462,NA,NA,NA,NA,1971,2005,35,"19.406","0.611987616","69.15895762",76.22
1591441,1,1911,"LUSWISHI","LWENDO","ZM",-12.9166,27.35,2668,-999,1971,2004,34,6.026675449,NA,NA,NA,NA,1971,2004,34,"20.907","0.659323152","247.1226207",43.9
1591470,1,1911,"KAFUE","NDUBENI","ZM",-13.4,27.82,18509,-999,1963,2005,43,27.81708258,1980,1984,5,6.666666667,1963,2005,43,"129.093","4.071076848","219.9512047",63.62
1591471,1,1911,"KAFUE","MPATAMATO","ZM",-13.25,28.1333,12001,-999,1952,2004,53,25.02332331,NA,NA,NA,NA,1952,2004,53,"94.595","2.98314792","248.5749454",69.51
1591480,1,1911,"KAFUE","WUSAKILI","ZM",-12.88,28.25,9088,1559,1959,2004,46,27.05811138,1976,1979,4,0,1959,2004,46,"76.315","2.40666984","264.8184243",66.87
1591481,1,1911,"KAFUE","REGLAN FARM (60334050)","ZM",-12.416667,27.733333,5163,-999,1959,1992,34,3.821815154,NA,NA,NA,NA,1959,1992,34,"38.553","1.215807408","235.484681",67.48
1591520,1,1911,"KAFULAFUTA","MIPUTU HILLS (60334250)","ZM",-13.25,28.216667,4880,-999,1966,1990,25,5.067218201,1978,1981,4,31.42857143,1966,1990,25,"23.102","0.728544672","149.291941",74.59
1591730,1,1911,"LUANGWA","LUANGWA ROAD BRIDGE (60332040)","ZM",-14.966667,30.216667,142760,-999,1941,1993,53,24.38707667,NA,NA,NA,NA,1941,1993,53,"549.552","17.33067187","121.3972532",71.75
1591820,1,1911,"LUANGINGA","KALABO","ZM",-14.9666,22.6833,34621,-999,1958,2004,47,8.944003788,NA,NA,NA,NA,1958,2004,47,"58.955","1.85920488","53.7016516",48.98
1597001,1,1971,"INCOMATI, RIO","MANANGA BORDER (68613130)","SZ",-25.943611,31.749444,8090,-999,1978,1993,16,36.04651163,NA,NA,NA,NA,1978,1993,16,"13.003","0.410062608","50.68759061",79.07
1597002,1,1971,"INCOMATI, RIO","ENTRANCE TO SWAZILAND (68613129)","SZ",-26.033333,31.103889,6174,-999,1977,1990,14,18.31382748,NA,NA,NA,NA,1977,1990,14,"15.164","0.478211904","77.45576676",78.46
1598001,1,1981,"UMBELUZI, RIO","MLAWULA (68621032)","SZ",-26.175,32.041667,2944,-999,1980,1990,11,11.39829413,NA,NA,NA,NA,1980,1990,11,"7.629","0.240588144","81.7215163",77.85
1599100,1,1991,"MAPUTO","SIPHOFANENI (68632206)","SZ",-26.686667,31.680833,12869,-999,1958,1993,36,5.508072175,NA,NA,NA,NA,1958,1993,36,"49.656","1.565951616","121.6840171",70.12
1599101,1,1991,"MAPUTO","BHUNYA (68632209)","SZ",-26.569167,31.083333,2977,-999,1953,1991,39,2.156988787,NA,NA,NA,NA,1953,1991,39,"11.34","0.35761824","120.1270541",71.75
1599150,1,1991,"MKONDVO","MAWELAWELA (68632207)","SZ",-26.830833,31.321667,3633,-999,1961,1991,31,19.32283608,NA,NA,NA,NA,1961,1991,31,"12.688","0.400128768","110.1372882",83.33
1599300,1,1991,"NGWEMPISI","MANKAYANE (68632205)","SZ",-26.705833,31.066111,3204,-999,1962,1991,30,17.20015063,NA,NA,NA,NA,1962,1991,30,"9.377","0.295713072","92.29496629",81.1
1615500,1,1151,"CORUBAL, RIO","GAOUAL","GN",11.78,-13.2,9749,100,1978,1980,3,0.091324201,1978,1980,3,0,1978,1980,3,"174.96","5.51753856","565.9594379",95.12
1616700,1,1160,"KONKOURE","PONT DE TELIMELE","GN",10.5,-12.9,10250,154,1954,2020,67,49.40429567,1976,1979,4,4.166666667,1954,2020,67,"399.775","12.6073044","1229.980917",47.97
1617800,1,1171,"GREAT SCARCIES","BADERA","GN",9.87,-12.52,2750,-999,1957,2020,64,48.4170353,1978,1980,3,2.857142857,1957,2020,64,"77.396","2.440760256","887.549184",45.73
1619600,1,1191,"MOA","NONGOA","GN",8.5,-10.33,5745,325,1975,2020,46,49.66690891,1976,1979,4,4.166666667,1975,2020,46,"83.758","2.641392288","459.7723739",49.19
1622500,1,1221,"DIANI","BAC","GN",8.06,-9.07,4095,375,1978,2020,43,55.76140985,1976,1980,5,3.333333333,1976,2020,45,"128.819","4.062435984","992.0478593",57.32
1634200,1,1341,"NIGER, RIVER","FARANAH","GN",10.0333,-10.75,3180,417,1955,2001,47,22.31680457,1955,2011,57,67.6119403,1955,2011,57,"57.702","1.819690272","572.2296453",47.15
1634400,1,1341,"NIGER, RIVER","KOUROUSSA","GN",10.65,-9.8667,18000,355,1923,2002,80,43.62054681,1923,2009,87,70.20250723,1923,2009,87,"200.566","6.325049376","351.391632",52.64
1634420,1,1341,"NIANDAN","BARO","GN",10.6,-9.73,12770,416,1947,1979,33,16.90554019,1947,1979,33,17.09183673,1947,1979,33,"267.298","8.429509728","660.1025629",97.76
1634500,1,1341,"MILO","KANKAN","GN",10.3833,-9.3,9620,361,1938,2020,83,13.72202395,1939,2007,69,50.54545455,1938,2020,83,"167.179","5.272156944","548.0412624",7.11
1634650,1,1341,"NIGER, RIVER","TIGUIBERY","GN",11.25,-9.17,70000,-999,1952,1979,28,10.57530449,1952,1979,28,10.54216867,1952,1979,28,"1104.624","34.83542246","497.6488923",97.76
1634700,1,1341,"NIGER, RIVER","DIALAKORO","GN",11.42,-8.91,71000,-999,1954,1980,27,40.27135368,1954,1980,27,40.3125,1954,1980,27,"1153.365","36.37251864","512.2889949",97.76
1653100,1,1531,"RUSIZI","GATUMBA","BI",-3.3333,29.25,14300,774,NA,NA,NA,NA,1975,1990,16,0,1975,1990,16,"185.373","5.845922928","408.8057992",71.54
1663100,1,1631,"BLUE NILE","KHARTOUM","SD",15.62,32.55,325000,363,NA,NA,NA,NA,1900,1982,83,1.104417671,1900,1982,83,"1573.681","49.62760402","152.70032",90.24
1663800,1,1631,"BLUE NILE","ROSEIRES DAM","SD",11.85,34.38,210000,-999,NA,NA,NA,NA,1912,1982,71,0,1912,1982,71,"1557.562","49.11927523","233.9013106",90.24
1664100,1,1641,"ATBARA, NAHR","KILO 3","SD",17.681,34.003,69000,334,NA,NA,NA,NA,1912,1982,71,7.042253521,1912,1982,71,"376.201","11.86387474","171.9402136",95.12
1666100,1,1661,"SOBAT, RIVER","HILLET DOLEIB","SS",9.37,31.63,230666,-999,NA,NA,NA,NA,1905,1982,78,32.7991453,1905,1982,78,"38.249","1.206220464","5.229294582",91.67
1670100,1,1701,"RUVUBU","BAC (MUYINGA)","BI",-2.8417,30.3403,9245.8,1338,NA,NA,NA,NA,1974,1989,16,0,1974,1989,16,"95.824","3.021905664","326.8409077",73.17
1670101,1,1701,"RUVUBU","GITEGA","BI",-3.425,29.9333,6212,1408,NA,NA,NA,NA,1973,1989,17,0.507614213,1973,1989,17,"69.443","2.189954448","352.5361314",73.17
1673100,1,1731,"WHITE NILE","MOGRAN","SD",15.61,32.49,1588194,-999,NA,NA,NA,NA,1973,1982,10,0,1973,1982,10,"897.586","28.3062721","17.82293101",90.24
1673600,1,1731,"WHITE NILE","MALAKAL","SS",9.58,31.62,1080000,375,NA,NA,NA,NA,1912,1982,71,0,1912,1982,71,"939.915","29.64115944","27.445518",90.24
1673900,1,1731,"WHITE NILE","MONGALLA","SS",5.2,31.77,450000,-999,NA,NA,NA,NA,1912,1982,71,0,1912,1982,71,"1051.059","33.14619662","73.65821472",90.24
1731400,1,1311,"PENDJARI","PORGA","BJ",10.2,0.97,22280,-999,1952,1992,41,29.07581179,1952,1992,41,23.40862423,1952,1992,41,"62.973","1.985916528","89.13449408",84.76
1732100,1,1321,"MONO","ATHIEME","BJ",6.92,1.67,21575,-999,1944,2007,64,35.77541494,1944,1992,49,28.91566265,1944,2007,64,"118.308","3.730961088","172.9298303",66.87
1733100,1,1331,"OUEME","PONT DE BETEROU","BJ",9.2,2.67,10326,-999,1952,1992,41,20.08135593,1952,1992,41,19.3814433,1952,1992,41,"51.935","1.63782216","158.6114817",83.94
1733200,1,1331,"ZOU","ATCHERIGBE","BJ",7.53,2.03,6950,-999,1951,1992,42,24.95554238,1951,1992,42,24.24849699,1951,1992,42,"25.831","0.814606416","117.2095563",88.82
1733300,1,1331,"OUEME","PONT DE SAVE","BJ",8,2.42,23600,-999,1951,1992,42,19.60163567,1951,1992,42,19.43887776,1951,1992,42,"110.983","3.499959888","148.3033851",84.96
1733320,1,1331,"OKPARA","KABOUA","BJ",8.25,2.72,9600,-999,1951,1992,42,18.02371542,1951,1992,42,17.83567134,1951,1992,42,"29.393","0.926937648","96.556005",83.94
1733400,1,1331,"ZOU","DOME","BJ",7.12,2.33,8210,-999,1952,1992,41,28.5335869,1952,1992,41,26.44628099,1952,1992,41,"23.986","0.756422496","92.13428697",84.15
1733500,1,1331,"OUEME","SAGON","BJ",7.17,2.43,37980,-999,1951,1984,34,19.17081531,1951,1984,34,15.90909091,1951,1984,34,"159.582","5.032577952","132.5060019",90.85
1733600,1,1331,"OUEME","BONOU","BJ",6.9,2.45,46990,-999,1948,2007,60,22.328578,1948,1992,45,24.62406015,1948,2007,60,"189.265","5.96866104","127.0198136",54.07
1734300,1,1341,"MEKROU","KOMPONGOU","BJ",11.4,2.18,5670,255,1960,1992,33,20.66533931,1960,1992,33,19.94949495,1960,1992,33,"16.22","0.51151392","90.21409524",79.88
1734410,1,1341,"ALIBORI","ROUTE KANDI-BANIKOARA AVAL","BJ",11.23,2.65,8170,215,1962,1992,31,26.90400283,1962,1992,31,25.87601078,1962,1992,31,"25.421","0.801676656","98.1244377",81.91
1734450,1,1341,"MEKROU","BAROU","BJ",12.35,2.73,10500,173,1961,1979,19,22.46054849,1961,2010,50,69.42567568,1961,2010,50,"36.35","1.1463336","109.1746286",97.76
1734500,1,1341,"NIGER, RIVER","MALANVILLE","BJ",11.8667,3.3833,1e+06,155,1952,2000,49,19.70608261,1952,1992,41,25.05175983,1952,2000,49,"1002.226","31.60619914","31.60619914",65.85
1734550,1,1341,"SOTA","RTE KANDI-SEGBANA AVAL","BJ",10.98,3.25,8298,190,1973,1986,14,51.5914585,1973,1986,14,51.53374233,1973,1986,14,"13.331","0.420406416","50.66358351",95.53
1734600,1,1341,"SOTA","COUBERI","BJ",11.75,3.33,13410,170,1953,1992,40,14.5325133,1953,1992,40,13.89473684,1953,1992,40,"32.384","1.021261824","76.15673557",79.27
1737080,1,1371,"OUHAM","BOZOUM","CF",6.333333333,16.35,8100,629.22,1987,1988,2,0.273224044,1987,1988,2,0,1987,1988,2,"n.a.","n.a.","n.a.",97.56
1737100,1,1371,"OUHAM","BEA-BAC","CF",6.483333333,17.08333333,13400,485.8,1986,1992,7,35.06825939,1986,1992,7,35.06493506,1986,1992,7,"102.829","3.242815344","242.0011451",89.84
1737150,1,1371,"OUHAM","BOSSANGOA","CF",6.466666667,17.45,23150,445.48,1986,1992,7,35.99452555,1951,1992,42,45.82484725,1951,1992,42,"125.504","3.957894144","170.9673496",90.45
1737200,1,1371,"FAFA","BOUCA","CF",6.5,18.26666667,6750,438.1,1986,1994,9,45.55099247,1958,1994,37,46.04651163,1958,1994,37,"20.614","0.650083104","96.308608",89.23
1737210,1,1371,"OUHAM","BATANGAFO","CF",7.3,18.28333333,43650,394.82,1987,1994,8,61.12631991,1951,1994,44,66.60194175,1951,1994,44,"347.825","10.9690092","251.2945979",93.5
1737250,1,1371,"GRIBINGUI","KAGA-BANDORO","CF",7,19.18333333,5680,401.54,1986,1988,3,4.103967168,1986,1988,3,4.166666667,1986,1988,3,"5.567","0.175560912","30.90861127",95.33
1737280,1,1371,"KOUKOUROU","KOUKOUROU","CF",7.2,20.01666667,5720,407.33,1986,1994,9,44.83010596,1954,1994,41,63.17991632,1954,1994,41,"10.54","0.33238944","58.11004196",90.04
1737300,1,1371,"BAMINGUI","BAMINGUI","CF",7.34,20.11,4380,408,1986,1994,9,60.02737851,1952,1994,43,51.38888889,1952,1994,43,"20.511","0.646834896","147.6792",92.07
1748500,1,1481,"SANGHA","SALO","CF",3.183333333,16.11666667,68400,373,1985,1994,10,22.20870094,1953,1994,42,34.95934959,1953,1994,42,"587.283","18.52055669","270.7683726",82.93
1749030,1,1491,"MBALI LIM","BOALI","CF",4.883333333,18.03333333,4410,507,1985,1988,4,0,1949,1988,40,48.93162393,1949,1988,40,"28.258","0.891144288","202.0735347",92.68
1749050,1,1491,"LOBAYE","M'BATA","CF",3.666666667,18.3,31300,336.47,1986,1994,9,38.93499308,1950,1994,45,32.82149712,1950,1994,45,"209.248","6.598844928","210.8257165",88.21
1749080,1,1491,"MPOKO","BOSSELE-BALI","CF",4.53333333,18.46666667,10800,349.7,1985,1994,10,37.24893488,1957,1994,38,44.74885845,1957,1994,38,"38.661","1.219213296","112.89012",86.18
1749100,1,1491,"UBANGI","BANGUI","CF",4.366666667,18.58333333,499000,336,1911,2016,106,16.68951957,1911,1994,84,34.30290873,1911,2016,106,"3761.045","118.6083151","237.6920143",7.52
1749150,1,1491,"OMBELLA","OMBELLA","CF",5.166666667,18.86666667,3420,375.58,1987,1988,2,8.310249307,1987,1988,2,8.333333333,1987,1988,2,"n.a.","n.a.","n.a.",97.76
1749200,1,1491,"TOMI","SIBUT","CF",5.733333333,19.08333333,3380,398.59,1986,1991,6,37.2972973,1951,1991,41,45.13457557,1951,1991,41,"8.937","0.281837232","83.38379645",91.46
1749400,1,1491,"BANGUI KETTE","ALINDAO","CF",5.05,21.2,4450,424.23,1987,1994,8,43.99687133,1987,1994,8,41.66666667,1987,1994,8,"38.592","1.217037312","273.4915308",90.04
1749500,1,1491,"MBOMOU","BANGASSOU","CF",4.716666667,22.81666667,115000,468.52,1986,1994,9,29.28769018,1986,1994,9,29.47368421,1986,1994,9,"803.927","25.35264187","220.4577554",86.38
1749510,1,1491,"MBARI","LOUNGOUMBA","CF",4.733333333,22.68333333,28300,469.44,1987,1994,8,55.10363707,1987,1994,8,52.38095238,1987,1994,8,"89.409","2.819602224","99.63258742",91.87
1749600,1,1491,"MBOMOU","ZEMIO","CF",5.033333333,25.15,29300,550.4,1986,1994,9,24.99144129,1952,1994,43,44.8,1952,1994,43,"158.873","5.010218928","170.997233",85.37
1749700,1,1491,"KERRE","KERRE","CF",5.35,25.75,3740,561.77,1986,1988,3,20.33195021,1986,1988,3,20.83333333,1986,1988,3,"n.a.","n.a.","n.a.",96.14
1749800,1,1491,"OUARRA","OBO","CF",5.4,26.5,5670,-5.46,1985,1994,10,28.3931832,1985,1994,10,27.77777778,1985,1994,10,"13.8","0.4351968","76.75428571",84.15
1769100,1,1691,"NYANDO","AHERO BRIDGE","KE",-0.28,35,2625,-999,1978,1980,3,2.828467153,1978,1980,3,2.777777778,1978,1980,3,"16.94","0.53421984","203.51232",95.33
1812500,1,1121,"SENEGAL FLEUVE","BAKEL","SN",14.9,-12.45,218000,11,1979,1989,11,50.67068163,1904,1989,86,18.75,1904,1989,86,"310.811","9.801735696","44.96209035",82.11
1812600,1,1121,"FALEME RIVIERE","KIDIRA","SN",14.45,-12.22,28900,20,1979,1989,11,50.42782225,1930,1989,60,21.6407355,1930,1989,60,"62.452","1.969486272","68.14831391",87.2
1813200,1,1131,"GAMBIA","GOULOUMBOU","SN",13.47,-13.73,42000,-999,1979,1989,11,51.49601976,1970,1994,25,12.16216216,1970,1994,25,"120.882","3.812134752","90.76511314",68.29
1813300,1,1131,"KOULOUNTOU","GUE DU P.N.N.K.","SN",12.78,-13.48,5350,-999,1979,1983,5,69.39203354,1971,1994,24,0,1971,1994,24,"27.497","0.867145392","162.0832508",60.98
1813320,1,1131,"KOULOUNTOU","MISSIRAH GOUNAS","SN",13.2,-13.62,6200,1.85,NA,NA,NA,NA,1971,1995,25,1.333333333,1971,1995,25,"28.639","0.903159504","145.6708877",59.35
1813350,1,1131,"SANDOUGOU","SINTHIOU MALEME","SN",13.82,-13.9,6900,-999,1981,1989,9,75.01711157,1981,1989,9,75,1981,1989,9,"n.a.","n.a.","n.a.",95.12
1813400,1,1131,"NIERI KO","GOUMBEYEL","SN",13.68,-13.17,6800,-999,1981,1983,3,0.821917808,1981,1983,3,0,1981,1983,3,"0.09","0.00283824","0.417388235",95.12
1813450,1,1131,"GAMBIA","WASSADOU AVAL","SN",13.35,-13.38,33500,4,1979,1989,11,51.46454969,1973,1994,22,23.46153846,1973,1994,22,"88.449","2.789327664","83.26351236",73.37
1813460,1,1131,"GAMBIA","WASSADOU AMONT","SN",13.35,-13.37,21200,5,1979,1989,11,60.81599124,1970,1994,25,24.32432432,1970,1994,25,"87.181","2.749340016","129.6858498",75.61
1813500,1,1131,"GAMBIA","SIMENTI","SN",13.03,-13.3,20500,10,1979,1989,11,52.91005291,1970,1994,25,20.94594595,1970,1994,25,"89.173","2.812159728","137.1785233",73.58
1813600,1,1131,"NIOKOLO KOBA","PONT ROUTIER","SN",13.07,-12.73,3000,48,1977,1987,11,14.89594743,1970,1987,18,14.21568627,1970,1987,18,"5.909","0.186346224","62.115408",82.72
1813700,1,1131,"GAMBIA","MAKO","SN",12.87,-12.35,10450,75,1979,1989,11,50.2337091,1970,1994,25,20.27027027,1970,1994,25,"68.071","2.146687056","205.4245987",73.17
1813780,1,1131,"GAMBIA","KEDOUGOU","SN",12.55,-12.18,7550,102,1979,1989,11,50.01368738,1970,1994,25,12.16216216,1970,1994,25,"62.23","1.96248528","259.9318252",68.29
1814070,1,1141,"GEBA, RIO","SONACO","GW",12.43,-14.5,7340,4,NA,NA,NA,NA,1979,1993,15,33.88888889,1979,1993,15,"1.47","0.04635792","6.315792916",75.81
1814400,1,1141,"GEBA, RIO","KAYANGA AVAL (PONT WASSADOU)","SN",12.83,-14.13,2870,-999,1979,1983,5,26.4301231,1979,1983,5,26.66666667,1979,1983,5,"0.211","0.006654096","2.318500348",93.29
1815020,1,1151,"CORUBAL, RIO","SALTINHO AMONT","GW",11.56,-14.67,23840,26,NA,NA,NA,NA,1977,1994,18,0,1977,1994,18,"314.938","9.931884768","416.6059047",61.18
1815070,1,1151,"CORUBAL, RIO","TCHE-TCHE","GW",11.93,-14.21,21880,35,NA,NA,NA,NA,1977,1994,18,0,1977,1994,18,"282.442","8.907090912","407.0882501",61.18
1816400,1,1160,"CASAMANCE","KOLDA","GW",12.53,-14.56,3700,1,1979,1983,5,27.78918549,1967,1983,17,1.01010101,1967,1983,17,"0.197","0.006212592","1.679078919",88.21
1835800,1,1351,"BENUE RIVER","YOLA","NG",9.25,12.5,107000,-999,NA,NA,NA,NA,1960,1989,30,0,1960,1989,30,"21.957","0.692435952","6.471364037",73.17
1837106,1,1371,"YOBE","GEIDAM","NG",12.989944,11.9705,67340,325,1958,2005,48,72.86759201,NA,NA,NA,NA,1958,2005,48,"34.754","1.096002144","16.27564811",90.85
1837107,1,1371,"YOBE","GASHUA","NG",12.861889,11.045444,62150,335,1962,2005,44,20.79576266,NA,NA,NA,NA,1962,2005,44,"36.794","1.160335584","18.6699209",56.71
1837200,1,1371,"KOMADUGU GANA","DAPCHI","NG",12.493528,11.50725,14504,338,1963,2005,43,79.58706661,NA,NA,NA,NA,1963,2005,43,"n.a.","n.a.","n.a.",91.67
1837250,1,1371,"JAMAARE, RIVER","KATAGUM","NG",12.280889,10.367667,15000,358,1975,1998,24,34.89571127,NA,NA,NA,NA,1975,1998,24,"62.369","1.966868784","131.1245856",75.2
1837253,1,1371,"JAMAARE, RIVER","FOGGO","NG",11.424033,9.950833,9842,407,1963,1982,20,21.91520468,NA,NA,NA,NA,1963,1982,20,"77.116","2.431930176","247.0971526",95.73
1837255,1,1371,"JAMAARE, RIVER","BUNGA","NG",10.930033,9.60565,7977,473,1964,1998,35,17.41720276,NA,NA,NA,NA,1964,1998,35,"56.962","1.796353632","225.1916299",67.28
1837401,1,1371,"HADEJIA","HADEJIA","NG",12.44065,10.03085,30435,357,1963,2006,44,8.293778063,NA,NA,NA,NA,1963,2006,44,"24.431","0.770456016","25.31480256",36.59
1837410,1,1371,"HADEJIA","WUDIL","NG",11.79715,8.834067,16380,413,1963,2005,43,35.9115299,NA,NA,NA,NA,1963,2005,43,"45.737","1.442362032","88.05629011",63.82
1837430,1,1371,"KANO RIVER","CHIROMAWA","NG",11.611367,8.377333,6975,466,1963,1996,34,45.30652932,NA,NA,NA,NA,1963,1996,34,"24.98","0.78776928","112.9418323",92.48
1837431,1,1371,"KANO RIVER","TIGA DAM","NG",11.468333,8.4075,6553,497,1970,1999,30,70.59770768,NA,NA,NA,NA,1970,1999,30,"27.202","0.857842272","130.9083278",86.79
1837451,1,1371,"CHALAWA, RIVER","CHALLAWA GORGE","NG",11.741666,8.072222,3860,490,1971,2005,35,69.81746032,NA,NA,NA,NA,1971,2005,35,"19.225","0.6062796","157.0672539",83.94
1870500,1,1701,"NYABARONGO","KIGALI","RW",-2,30,8900,1352,NA,NA,NA,NA,1965,1984,20,7.916666667,1965,1984,20,"87.634","2.763625824","310.5197555",85.77
1870600,1,1701,"NYABARONGO","KANZENZE","RW",-2.06,30.11,14600,1338,NA,NA,NA,NA,1965,1984,20,3.75,1965,1984,20,"109.333","3.447925488","236.15928",85.37
1870800,1,1701,"KAGERA","RUSUMO","RW",-2.38,30.79,30200,1290,NA,NA,NA,NA,1965,1984,20,4.60251046,1965,1984,20,"224.071","7.066303056","233.9835449",85.37
1878100,1,1781,"SHEBELE, WABI","AFGOI","SO",2.17,45.09,278000,-999,NA,NA,NA,NA,1951,1979,29,9.552238806,1951,1979,29,"45.432","1.432743552","5.153753784",99.59
1878300,1,1781,"SHEBELE, WABI","MAHADDEI UEN","SO",3,45.53,255300,-999,NA,NA,NA,NA,1951,1979,29,25.51928783,1951,1979,29,"58.249","1.836940464","7.195223126",99.39
1878500,1,1781,"SHEBELE, WABI","BELET UEN","SO",4.78,45.2,211800,-999,NA,NA,NA,NA,1951,1979,29,9.226190476,1951,1979,29,"66.028","2.082259008","9.831251218",99.39
1880100,1,1801,"JUBBA, WEBI","LUGH GANANA","SO",3.56,42.32,179520,-999,NA,NA,NA,NA,1951,1979,29,8.308605341,1951,1979,29,"190.801","6.017100336","33.51771578",99.8
1889100,1,1894,"MESSALO, RIO","EST. NAIROTO MONTEPUZ (58262047)","MZ",-12.5675,39,10450,-999,1963,1986,24,27.6498801,NA,NA,NA,NA,1963,1986,24,"54.229","1.710165744","163.6522243",89.43
1889200,1,1890,"LICUARE, RIO","NICUADALA CAMPO (58279004)","MZ",-17.570833,36.691667,3743,-999,1967,1984,18,22.23873205,NA,NA,NA,NA,1967,1984,18,"14.899","0.469854864","125.5289511",90.24
1891500,1,1911,"ZAMBEZI RIVER","MATUNDO-CAIS (58316087)","MZ",-16.15,33.591667,940000,117,1960,1990,31,0.425768234,1976,1979,4,0,1960,1990,31,"2486.752","78.42221107","83.42788412",72.36
1894200,1,1942,"BUZI, RIO","ESTAQUINHA (58415088)","MZ",-19.958333,34.166667,26871,35,1956,1983,28,26.08254741,1976,1977,2,0,1956,1983,28,"192.158","6.059894688","225.518019",90.85
1894400,1,1941,"PUNGWE","BUE-MARIA (58414066)","MZ",-19.025278,34.18,15300,60,1953,1981,29,6.502395619,1976,1979,4,6.25,1953,1981,29,"98.445","3.10456152","202.9125176",93.9
1894401,1,1941,"PUNGWE","E.N.102 (58414065)","MZ",-18.558333,33.25,3170,-999,1954,1980,27,5.706016126,NA,NA,NA,NA,1954,1980,27,"65.321","2.059963056","649.830617",99.19
1895500,1,1951,"SAVE, RIO","VILLAFRANCA DO SAVE","MZ",-21.1,34.68,100885,20,NA,NA,NA,NA,1976,1979,4,2.127659574,1976,1979,4,"424.192","13.37731891","132.5996819",97.76
1895501,1,1951,"SAVE, RIO","JUNGULO (58421047)","MZ",-21.141667,34.533333,102392,-999,1967,1981,15,4.399687133,NA,NA,NA,NA,1967,1981,15,"298.938","9.427308768","92.07075522",94.11
1896500,1,1961,"LIMPOPO RIVER","CHOKWE","MZ",-24.5,33,342000,23,NA,NA,NA,NA,1976,1979,4,15.55555556,1976,1979,4,"439.791","13.86924898","40.55335958",98.17
1896501,1,1961,"LIMPOPO RIVER","SICACATE (58510036)","MZ",-24.744444,33.543056,416522,-999,1970,1988,19,18.89992361,NA,NA,NA,NA,1970,1988,19,"195.342","6.160305312","14.78986779",84.55
1896502,1,1961,"LIMPOPO RIVER","COMBOMUNE (58510033)","MZ",-23.460556,32.433333,266350,-999,1965,1993,29,3.5787621,NA,NA,NA,NA,1965,1993,29,"103.088","3.250983168","12.20568113",66.46
1897500,1,1971,"INCOMATI, RIO","CHOBELA","MZ",-25.02,32.73,37600,14,NA,NA,NA,NA,1976,1979,4,2.083333333,1976,1979,4,"104.017","3.280280112","87.24149234",97.76
1897501,1,1971,"INCOMATI, RIO","RESSANO GARCIA C.F. (58613123)","MZ",-25.434722,31.993611,21773,-999,1952,1992,41,2.498288843,NA,NA,NA,NA,1952,1992,41,"61.897","1.951983792","89.65157727",68.9
1897550,1,1971,"SABIE, RIO","MACHATUINE (58612030)","MZ",-25.17,32.068333,6345,-999,1953,1987,35,0,NA,NA,NA,NA,1953,1987,35,"19.15","0.6039144","95.17957447",78.66
1898501,1,1981,"UMBELUZI, RIO","GOBA MONTANTE (58621010)","MZ",-26.196667,32.116389,3034,-999,1951,1988,38,0,NA,NA,NA,NA,1951,1988,38,"10.812","0.340967232","112.3820804",76.22
1899100,1,1991,"MAPUTO","MADUBULA (58631006)","MZ",-26.79,32.44,29476,11,1953,1983,31,0.67294751,1976,1979,4,2.083333333,1953,1983,31,"91.63","2.88964368","98.03377935",88.41
1899101,1,1991,"MAPUTO","FRONTIERA OESTE (58632293)","MZ",-26.85,32.133333,16427,-999,1966,1983,18,0.016105653,NA,NA,NA,NA,1966,1983,18,"79.518","2.507679648","152.6559718",88.62
1928130,1,1281,"LERABA OCCIDENTALE","FOURKOURA","BF",10.3,-5.38,2550,-999,NA,NA,NA,NA,1974,1984,11,30.89430894,1974,1984,11,"6.913","0.218008368","85.49347765",87.8
1928490,1,1281,"LERABA OCCIDENTALE","YENDERE","BF",10.17,-5.07,5930,264,1977,1977,1,0,1955,1989,35,1.927710843,1955,1989,35,"25.622","0.808015392","136.2589194",74.8
1928865,1,1281,"KOMOE","FOLONZO","BF",9.85,-4.62,9480,-999,1977,1977,1,4.383561644,1973,1985,13,0.641025641,1973,1985,13,"14.799","0.466701264","49.23009114",82.93
1931025,1,1311,"BLACK VOLTA","BANZO","BF",11.32,-4.82,2816,323,NA,NA,NA,NA,1956,1986,31,9.189189189,1956,1986,31,"11.215","0.35367624","125.5952557",86.99
1931070,1,1311,"BLACK VOLTA","SAMANDENI","BF",11.47,-4.47,4580,296,1977,1983,7,6.651017214,1955,1987,33,1.781170483,1955,1987,33,"8.688","0.273984768","59.82200175",78.66
1931160,1,1311,"BOUGOURIBA","DAN","BF",10.92,-3.65,6345,275,1977,1983,7,8.13771518,1970,1985,16,18.18181818,1970,1985,16,"7.071","0.222991056","35.14437447",84.35
1931180,1,1311,"BLACK VOLTA","NWOKUY","BF",12.52,-3.55,14800,-999,NA,NA,NA,NA,1956,1988,33,0,1956,1988,33,"26.224","0.827000064","55.8783827",76.42
1931190,1,1311,"BLACK VOLTA","KOURI","BF",12.73,-3.48,20000,248,NA,NA,NA,NA,1955,1982,28,31.07692308,1955,1982,28,"29.123","0.918422928","45.9211464",92.68
1931295,1,1311,"BLACK VOLTA","MANIMENSO","BF",12.75,-3.4,20000,247,NA,NA,NA,NA,1956,1983,28,0,1956,1983,28,"24.583","0.775249488","38.7624744",87.8
1931340,1,1311,"BOUGOURIBA","DIEBOUGOU","BF",10.93,-3.17,12200,240,NA,NA,NA,NA,1963,1986,24,9.473684211,1963,1986,24,"24.748","0.780452928","63.97155148",85.16
1931370,1,1311,"BLACK VOLTA","BOROMO","BF",11.78,-2.92,37140,238,NA,NA,NA,NA,1955,1991,37,0.696055684,1955,1991,37,"32.979","1.040025744","28.00284717",71.14
1931400,1,1311,"BLACK VOLTA","DAPOLA","BF",10.57,-2.92,66540,228,1977,1977,1,0,1951,1991,41,0.625,1951,1991,41,"75.06","2.36709216","35.57397295",70.93
1931415,1,1311,"KANBA","BATIE","BF",9.98,-2.9,5630,230,NA,NA,NA,NA,1971,1985,15,2.857142857,1971,1985,15,"12.526","0.395019936","70.16339893",83.54
1931445,1,1311,"BLACK VOLTA","TENADO","BF",12.17,-2.82,23700,-999,NA,NA,NA,NA,1976,1985,10,0,1976,1985,10,"18.479","0.582753744","24.58876557",82.93
1931460,1,1311,"BLACK VOLTA","OUESSA","BF",11.02,-2.82,50820,-999,NA,NA,NA,NA,1969,1986,18,16.66666667,1969,1986,18,"43.715","1.37859624","27.12704132",84.15
1931475,1,1311,"BLACK VOLTA","NOUMBIEL","BF",9.68,-2.77,79700,214,NA,NA,NA,NA,1975,1985,11,27.2,1975,1985,11,"82.27","2.59446672","32.5529074",86.18
